,event_date,latitude,longitude,city
0,1977-03-31,47.3294444,-122.5788889,Gig Harbor
1,1982-11-15,52.664913,-1.034894,Charnwood
2,1992-12-07,38.9516667,-92.3338889,Columbia
3,2011-02-21,41.4969444,-71.3677778,Jamestown
4,1991-03-09,47.6063889,-122.3308333,Seattle
5,2011-08-13,33.9163889,-118.3516667,Hawthorne
6,1991-02-05,33.6694444,-117.8222222,Irvine
7,1972-12-31,44.716667,-75.516667,Prescott
8,2004-12-07,40.8666667,-124.0816667,Arcata
9,1994-11-15,47.1302778,-119.2769444,Moses Lake
10,1992-04-04,51.783333,-0.783333,Stoke Mandeville
11,2014-03-12,41.36144,-81.812912,Middleburg Heights
12,1972-01-20,38.2541667,-85.7594444,Louisville
13,2001-05-07,39.063658,-77.298777,Darnestown
14,2007-07-27,37.775,-122.4183333,San Francisco
15,2017-10-04,39.9777778,-85.6147222,Markleville
16,2016-11-10,33.9022222,-118.0808333,Norwalk
17,1984-01-11,38.2325,-122.6355556,Petaluma
18,2007-12-21,-38.662334,178.017649,Gisborne
19,1975-12-15,41.9994444,-88.145,unknown
20,2010-03-08,28.6986111,-81.3083333,unknown
21,1983-07-13,27.8961111,-81.8433333,Bartow
22,1987-10-15,42.6375,-70.95,Topsfield
23,1994-07-02,43.9627778,-70.2830556,New Gloucester
24,1981-09-26,45.5236111,-122.675,Portland
25,1984-01-12,46.7163889,-122.9530556,Centralia
26,2006-10-08,37.9736111,-122.53,San Rafael
27,1992-08-31,30.3319444,-81.6558333,Jacksonville
28,1997-10-02,40.2736111,-76.8847222,Harrisburg
29,1971-11-14,33.5016667,-117.6616667,San Juan Capistrano
30,1993-09-09,36.7794444,-85.4519444,unknown
31,2010-05-10,35.1405556,-85.2327778,Chattanooga
32,2015-10-08,34.085562,-119.060935,unknown
33,2002-11-19,-37.813938,144.963425,Melbourne
34,2006-05-22,33.4483333,-112.0733333,Phoenix
35,1999-07-23,38.8002778,-90.6263889,Saint Peters
36,1987-05-09,34.0633333,-117.65,Ontario
37,1988-11-12,39.143441,-77.20137,Gaithersburg
38,1991-01-22,48.0402778,-122.405,Langley
39,1997-12-27,52.25,-0.883333,Northampton
40,2012-08-26,43.6666667,-92.9744444,Austin
41,1986-03-23,25.9561111,-80.1394444,unknown
42,2002-04-22,42.2711111,-89.0938889,Rockford
43,1986-08-24,27.9011111,-81.5861111,Lake Wales
44,1971-02-17,42.2711111,-89.0938889,Rockford
45,1974-09-03,43.0852778,-77.9425,Village of Bergen
46,1970-09-08,42.2711111,-89.0938889,Rockford
47,1982-12-14,42.32,-89.0580556,Machesney Park
48,1979-05-21,37.1272222,-90.45,Greenville
49,1973-03-03,38.2544444,-104.6086111,Pueblo
50,1988-11-05,33.8358333,-118.3397222,Torrance
51,1987-10-10,41.4527778,-82.1825,Lorain
52,1986-02-11,32.7947222,-116.9616667,El Cajon
53,1992-08-07,-34.928661,138.598633,Adelaide
54,2015-05-14,38.8858333,-94.5327778,Grandview
55,2015-07-12,33.6411111,-117.9177778,Costa Mesa
56,2003-03-05,36.0152778,-83.415,Dandridge
57,1973-02-15,33.8358333,-118.3397222,Torrance
58,1995-01-07,39.5419444,-77.1083333,New Windsor
59,1985-04-26,47.6063889,-122.3308333,Seattle
60,1998-11-20,-34.603723,-58.381593,Buenos Aires
61,1995-01-09,42.3952778,-94.6336111,Rockwell City
62,2002-07-07,49.25,-123.133333,Vancouver
63,1996-06-28,51.514125,-0.093689,City of London
64,1979-06-25,44.5366667,-122.9058333,Lebanon
65,2001-05-20,44.5402778,-123.3663889,Philomath
66,1978-03-02,40.5866667,-122.3905556,Redding
67,1990-02-07,34.2569444,-85.1647222,Rome
68,1986-01-24,46.216667,-63.483333,Victoria
69,2016-06-27,28.565,-81.5863889,Winter Garden
70,2010-04-26,51.416667,-1.716667,Marlborough
71,1972-08-16,38.935,-74.9063889,Cape May
72,2014-09-05,4.62977,-74.13401,Bogotá
73,2008-06-30,40.7141667,-74.0063889,City of New York
74,1979-09-12,42.9633333,-85.6680556,Grand Rapids
75,1977-03-08,36.6208333,-90.8233333,Doniphan
76,1980-07-05,37.5536111,-77.4605556,Richmond
77,2002-05-17,40.7608333,-111.8902778,Salt Lake City
78,2013-11-11,13.727896,100.524123,กรุงเทพมหานคร
79,2015-09-04,38.6702778,-89.9844444,Collinsville
80,2016-10-03,40.668955,-86.134588,unknown
81,2014-07-08,20.9175,-156.3258333,Haiku
82,1975-10-05,53.166667,-1.0,Newark and Sherwood
83,2011-10-03,26.6402778,-81.8725,Fort Myers
84,1970-12-29,39.4561111,-77.9641667,Martinsburg
85,1985-09-17,-34.45,138.35,Dublin
86,1990-06-25,51.508515,-0.125487,City of Westminster
87,2014-03-29,33.5833333,-95.9097222,Honey Grove
88,1994-10-13,40.7966667,-81.5216667,Massillon
89,2013-07-10,43.2136111,-77.9394444,Village of Brockport
90,1972-03-06,32.8794444,-111.7566667,Casa Grande
91,2009-12-24,47.4158333,-120.2919444,East Wenatchee
92,2001-12-24,41.5569444,-83.6272222,Perrysburg
93,1975-07-30,64.8377778,-147.7163889,Fairbanks
94,1999-03-17,41.85,-87.65,Chicago
95,1984-03-30,-17.383333,-66.166667,unknown
96,2014-09-28,32.7152778,-117.1563889,San Diego
97,1989-02-22,29.4658333,-81.2580556,Bunnell
98,2011-03-13,47.5675,-122.6313889,Bremerton
99,1994-10-11,41.52,-81.4888889,Lyndhurst
100,1971-03-12,44.5366667,-122.9058333,Lebanon
101,2011-11-21,27.9472222,-82.4586111,Tampa
102,2010-09-25,40.9008333,-73.3436111,Village of Northport
103,1994-02-20,42.1033333,-76.2625,Owego
104,2016-07-29,42.5777778,-70.7694444,Manchester-by-the-Sea
105,1971-11-25,39.7683333,-86.1580556,Indianapolis
106,1988-12-19,33.5394444,-83.8194444,unknown
107,2012-08-12,43.1636111,-73.0727778,Manchester
108,1987-10-03,39.9369444,-120.9461111,Quincy
109,1992-02-06,43.683333,-79.766667,Brampton
110,1974-01-04,35.2619444,-81.1875,Gastonia
111,1970-07-26,42.888614,-78.872212,Buffalo
112,1977-09-11,33.8702778,-117.9244444,Fullerton
113,1993-04-04,39.1155556,-77.5638889,Leesburg
114,1973-01-09,39.6477778,-104.9872222,Englewood
115,1988-10-29,33.9908333,-118.4591667,Los Angeles
116,1993-12-21,47.5675,-122.6313889,Bremerton
117,1986-03-18,29.7027778,-98.1241667,New Braunfels
118,1992-07-04,30.4866667,-90.9561111,Denham Springs
119,2002-11-20,44.8755556,-91.9191667,Menomonie
120,2013-11-17,41.7308333,-84.9327778,Fremont
121,1983-04-02,39.1580556,-75.5247222,Dover
122,2011-10-30,41.4277778,-74.1663889,Village of Washingtonville
123,2004-04-10,34.5022222,-97.9575,Duncan
124,1995-07-15,36.1658333,-86.7844444,Nashville-Davidson
125,1999-10-27,40.5697222,-79.765,New Kensington
126,1971-06-26,48.0519444,-122.1758333,Marysville
127,2000-04-18,29.4238889,-98.4933333,San Antonio
128,1986-01-27,53.666667,-3.0,Southport
129,1985-05-28,41.7,-71.6833333,Coventry
130,1972-01-13,37.1752778,-101.3491667,Hugoton
131,1985-09-18,32.1572222,-94.3372222,Carthage
132,2004-05-05,3.139003,101.686855,Kuala Lumpur
133,1991-04-22,38.2972222,-122.2844444,Napa
134,2005-02-01,30.3319444,-81.6558333,Jacksonville
135,2016-04-30,39.6363889,-74.8027778,Hammonton
136,1971-05-24,44.583333,-75.683333,Brockville
137,1980-05-27,40.3041667,-73.9927778,Long Branch
138,2007-03-16,39.613584,-84.160146,unknown
139,2006-10-03,46.2633333,-119.4866667,Benton City
140,2007-11-13,37.5388889,-87.2583333,Calhoun
141,2008-12-23,29.7233333,-98.9355556,Pipe Creek
142,2010-01-19,42.0963889,-79.3758333,unknown
143,1976-02-12,51.316667,-0.266667,Epsom and Ewell
144,2001-09-06,38.7316667,-82.9977778,Portsmouth
145,1980-04-03,29.186896,-89.936737,unknown
146,1999-07-05,51.916667,-0.65,Leighton Buzzard
147,1982-06-02,47.6761111,-120.2072222,Entiat
148,2003-03-04,27.9375,-82.2861111,Brandon
149,1984-12-28,33.4511111,-86.9966667,Hueytown
150,1998-07-25,51.628347,0.814539,Burnham-on-Crouch
151,1995-02-14,42.5833333,-71.8027778,Fitchburg
152,2007-02-24,41.083152,-73.920137,Village of Nyack
153,1977-09-18,42.4605556,-83.6516667,South Lyon
154,1973-10-09,41.6777778,-79.88,Townville
155,2011-08-06,38.7522222,-121.2869444,Roseville
156,1998-02-16,46.8219444,-123.095,Rochester
157,1996-03-26,28.1458333,-82.7569444,Tarpon Springs
158,2016-09-26,13.728,-60.954,Vieux Fort
159,1982-04-06,40.0213889,-122.0991667,Los Molinos
160,2012-03-13,32.4616667,-90.1152778,Madison
161,2012-03-29,47.2033333,-122.2391667,Sumner
162,1991-08-09,36.9902778,-86.4436111,Bowling Green
163,2001-07-26,41.3305556,-72.9722222,New Haven
164,1998-01-23,34.028926,-84.198579,Johns Creek
165,1976-09-30,26.3180556,-80.1,Deerfield Beach
166,1979-08-26,41.4047222,-81.7230556,Parma
167,1978-11-08,46.6633333,-123.8033333,South Bend
168,1995-05-11,53.29279,-6.141937,Dún Laoghaire
169,2013-06-13,35.6838889,-82.0094444,Marion
170,2010-03-17,30.1686111,-93.3758333,unknown
171,1979-02-01,34.4838889,-114.3216667,Lake Havasu City
172,2016-09-24,35.3733333,-119.0177778,Bakersfield
173,2005-08-08,47.2033333,-122.2391667,Sumner
174,1993-06-06,44.9133333,-93.5030556,Minnetonka
175,1990-08-04,34.1722222,-118.3780556,Los Angeles
176,2012-11-07,41.2455556,-89.9247222,Kewanee
177,1994-05-03,40.7086111,-113.1166667,unknown
178,1992-05-31,33.3391667,-84.6486111,Sharpsburg
179,1999-12-18,30.6236111,-84.4147222,Havana
180,1995-09-06,28.8002778,-81.2733333,Sanford
181,1999-08-08,18.4463889,-66.3880556,Vega Baja
182,1978-10-10,44.3875,-68.2044444,Bar Harbor
183,1971-05-18,34.9494444,-81.9322222,Spartanburg
184,2010-08-17,53.166667,-2.583333,Little Budworth
185,1971-03-01,41.9438889,-85.6325,Three Rivers
186,1973-04-14,44.8041667,-93.1666667,Eagan
187,1995-09-22,38.7522222,-121.2869444,Roseville
188,1970-11-06,36.6230556,-93.1638889,Kirbyville
189,1982-05-22,47.5675,-122.6313889,Bremerton
190,1970-07-30,34.1063889,-117.5922222,Rancho Cucamonga
191,2001-06-04,29.38421,-98.581082,San Antonio
192,1998-02-07,41.6580556,-90.5844444,Eldridge
193,2008-04-03,41.9316667,-87.9888889,Addison
194,1999-08-13,42.3636111,-87.8447222,Waukegan
195,2003-01-25,33.1505556,-96.8233333,Frisco
196,1970-09-24,35.2219444,-101.8308333,Amarillo
197,2003-08-15,49.683333,-125.0,Courtenay
198,1990-10-11,21.5902778,-158.1125,Haleiwa
199,1976-09-07,41.7675,-76.4430556,Towanda
200,2002-09-24,36.5297222,-87.3594444,Clarksville
201,2002-03-20,40.975,-81.4083333,Uniontown
202,1978-04-16,36.175,-115.1363889,Las Vegas
203,1973-03-20,34.9191667,-115.0619444,unknown
204,1987-02-02,48.3888889,-122.495,La Conner
205,1984-11-04,37.0561111,-85.0886111,Russell Springs
206,2014-02-19,41.6005556,-93.6088889,Des Moines
207,2005-04-13,38.2547222,-121.2988889,Galt
208,1987-05-18,39.1652778,-86.5263889,Bloomington
209,2003-08-23,26.5625,-81.9497222,Cape Coral
210,1972-09-05,29.31166,47.481766,مدينة المطلاع
211,2016-01-30,27.9655556,-82.8002778,Clearwater
212,1974-03-31,40.5741667,-74.6102778,Somerville
213,2009-11-12,37.3394444,-121.8938889,San Jose
214,2010-06-13,41.5427778,-87.6847222,Flossmoor
215,1979-07-22,36.8044444,-121.7858333,Moss Landing
216,1994-03-05,26.6833333,-80.28,unknown
217,1995-01-26,33.0580556,-112.0469444,Maricopa
218,1986-02-06,26.6155556,-80.0572222,Lake Worth Beach
219,2013-03-17,29.1691667,-95.4316667,Angleton
220,2012-09-16,41.485711,-71.563662,South Kingstown
221,1977-11-15,31.7619444,-95.6305556,Palestine
222,1982-08-29,36.188137,-94.540496,Siloam Springs
223,1971-02-08,43.0125,-83.6875,Flint
224,1979-10-31,32.7447222,-116.9980556,unknown
225,1985-06-08,42.9633333,-85.6680556,Grand Rapids
226,1971-10-09,40.566428,-89.731773,Mapleton
227,1997-05-06,34.1577778,-118.6375,Calabasas
228,1993-10-05,42.3086111,-83.4822222,Canton
229,1989-01-25,30.5402778,-88.6875,unknown
230,1988-08-17,42.9119444,-77.7458333,Village of Avon
231,2018-07-27,28.5380556,-81.3794444,Orlando
232,1972-11-17,46.0,-64.55,Memramcook
233,1994-02-25,40.0175,-90.4241667,Beardstown
234,2015-11-13,34.2241667,-118.2391667,unknown
235,2000-12-12,39.9561111,-75.0583333,Pennsauken Township
236,1990-07-30,41.5569444,-83.6272222,Perrysburg
237,2003-04-02,51.38847,-0.416969,Elmbridge
238,2015-05-25,37.8361111,-87.59,Henderson
239,1978-01-19,44.98,-93.2636111,Minneapolis
240,1981-08-03,46.62794,14.30899,Klagenfurt am Wörthersee
241,1982-01-30,35.2225,-97.4391667,Norman
242,2005-11-09,18.220833,-66.590149,Jayuya
243,2008-08-12,34.3916667,-118.5416667,Santa Clarita
244,1993-08-29,40.3336111,-75.6377778,Boyertown
245,1995-02-23,42.5830556,-83.3594444,Orchard Lake
246,2016-05-12,34.0522222,-118.2427778,Los Angeles
247,2004-02-22,40.8808333,-88.6297222,Pontiac
248,1988-01-19,34.2783333,-119.2922222,Ventura
249,1976-02-11,42.2411111,-83.6130556,Ypsilanti
250,1995-08-22,38.9886111,-78.3588889,Strasburg
251,1992-01-14,32.7252778,-114.6236111,Yuma
252,1995-11-10,31.5544444,-110.3030556,Sierra Vista
253,2017-03-06,42.0083333,-91.6438889,Cedar Rapids
254,2014-01-26,40.330188,-79.730701,North Huntingdon Township
255,2001-03-05,33.9547222,-118.2111111,South Gate
256,1985-11-04,38.2541667,-85.7594444,Louisville
257,1998-02-15,33.6694444,-117.8222222,Irvine
258,2007-04-01,42.4858333,-83.1052778,Madison Heights
259,1989-10-11,40.5675,-88.2477778,Melvin
260,1976-07-31,44.2,-77.033333,Greater Napanee
261,2011-05-01,46.7683333,-88.7530556,unknown
262,1975-04-16,32.2730556,-89.9858333,Brandon
263,1996-05-09,41.6361111,-70.9347222,New Bedford
264,1975-02-10,53.1,9.15,Ottersberg
265,1977-09-18,43.0730556,-89.4011111,Madison
266,2004-02-21,31.7319444,-84.1708333,Leesburg
267,1976-08-17,42.6105556,-71.2347222,Tewksbury
268,2011-07-10,42.1291667,-80.0852778,Erie
269,1974-04-25,42.983333,-81.25,London
270,1981-10-22,41.2052778,-76.0052778,Nanticoke
271,1977-06-05,41.9666667,-71.1875,Norton
272,1994-03-07,35.9605556,-83.9208333,Knoxville
273,1986-03-20,34.189021,-118.602337,Los Angeles
274,2000-11-15,44.4375,-73.0686111,Taft Corners
275,1988-07-16,48.187056,-122.507847,unknown
276,2005-10-07,39.0216667,-84.44,Cold Spring
277,2007-04-27,33.2147222,-97.1327778,Denton
278,2002-06-25,39.9536111,-74.1983333,Toms River
279,2011-03-08,33.990968,-118.098861,Pico Rivera
280,2008-11-06,31.5783333,-84.1558333,Albany
281,2008-03-12,-33.861481,151.205475,Sydney
282,1982-03-11,41.0813889,-81.5191667,Akron
283,1970-08-19,39.4194444,-76.7805556,Owings Mills
284,1977-03-11,41.9583333,-70.6677778,Plymouth
285,2017-01-23,5.852036,-55.203828,Weg naar Zee
286,2005-07-13,41.5444444,-73.2094444,Woodbury
287,1998-12-06,38.2027778,-75.6927778,Princess Anne
288,2015-12-13,40.4405556,-79.9961111,Pittsburgh
289,1998-07-03,39.8666667,-74.1683333,Lacey Township
290,2000-03-01,42.0775,-78.43,City of Olean
291,1986-05-16,51.266667,-114.016667,Airdrie
292,2006-12-14,43.3652778,-72.1738889,Newport
293,2014-08-10,51.64397,-121.29501,100 Mile House
294,1996-08-04,51.903761,-0.196612,Stevenage
295,1984-02-19,35.925,-86.8688889,Franklin
296,2006-07-01,41.3325,-73.2077778,Monroe
297,1972-06-07,53.55,-113.5,Edmonton
298,2002-09-20,39.6133333,-105.0161111,Littleton
299,1982-09-01,42.1083333,-91.285,Anamosa
300,1994-05-23,42.5680556,-78.4791667,Town of Concord
301,1994-02-21,44.5197222,-67.6155556,Beals
302,1975-10-20,44.3147222,-84.7647222,Houghton Lake
303,2008-10-09,53.916667,-122.766667,Prince George
304,1972-12-13,43.2166667,-123.3405556,Roseburg
305,1995-04-13,44.35,-78.75,Kawartha Lakes
306,2011-09-07,38.6580556,-77.25,Woodbridge
307,1999-11-18,38.5816667,-121.4933333,Sacramento
308,2012-09-25,-33.137551,81.826172,unknown
309,1975-11-04,33.5205556,-86.8025,Birmingham
310,2016-04-30,30.198381,71.468703,ملتان
311,2013-01-15,38.005,-121.8047222,Antioch
312,2015-05-25,38.6858333,-121.0811111,unknown
313,1980-09-12,38.8105556,-90.6997222,O’Fallon
314,1991-05-17,47.6419444,-122.0791667,Sammamish
315,2016-05-12,43.0116667,-88.2313889,Waukesha
316,1975-08-25,33.9930556,-117.9677778,El Monte
317,1992-07-21,43.2166667,-123.3405556,Roseburg
318,1995-10-31,36.9086111,-116.7583333,Beatty
319,1971-12-18,33.2147222,-97.1327778,Denton
320,1975-06-16,31.8972222,-98.6033333,Comanche
321,2015-05-20,29.8944444,-81.3147222,Saint Augustine
322,2017-05-15,54.8575,-5.80986,Larne
323,2006-09-19,38.7244444,-83.0133333,unknown
324,2018-07-08,38.161861,-121.611621,Isleton
325,2017-12-01,40.4463889,-74.1786111,Union Beach
326,1984-01-24,34.9552778,-90.0347222,Horn Lake
327,2002-09-27,34.7463889,-92.2894444,Little Rock
328,2002-06-16,38.0194444,-122.1330556,Martinez
329,1987-01-18,40.7141667,-74.0063889,City of New York
330,1998-07-19,25.6788889,-80.3175,Kendall
331,1973-10-21,42.9875,-71.8130556,Francestown
332,2000-06-25,41.2586111,-95.9375,Omaha
333,2000-03-22,41.8775,-88.0669444,Glen Ellyn
334,2017-06-03,37.2708333,-79.9416667,Roanoke
335,2004-06-10,40.7280556,-74.0780556,Jersey City
336,1984-10-30,43.5688889,-86.0394444,Hesperia
337,1983-02-04,38.056468,-83.943256,Mount Sterling
338,1996-02-29,40.1777778,-74.5838889,Allentown
339,1991-03-05,39.9522222,-75.1641667,Philadelphia
340,1992-05-03,48.1958333,-114.3119444,Kalispell
341,1993-11-12,12.971599,77.594563,Bengaluru
342,2018-06-04,33.2147222,-97.1327778,Denton
343,1984-07-27,-33.224584,151.221857,unknown
344,2007-02-14,28.0512,-16.709685,Los Cristianos
345,1981-02-25,40.0638889,-80.7211111,Wheeling
346,1980-06-19,42.45,-73.2458333,Pittsfield
347,1991-05-30,54.766667,-127.166667,Smithers
348,1994-10-20,40.8041667,-74.0125,North Bergen
349,1990-05-26,37.7022222,-121.9347222,Dublin
350,2012-12-06,42.4605556,-83.1347222,Ferndale
351,1994-07-15,32.7866667,-79.795,Isle of Palms
352,2011-07-11,7.843899,98.293619,ตำบลกะรน
353,2018-12-17,34.0522222,-118.2427778,Los Angeles
354,2003-01-29,31.2169444,-98.3930556,Lometa
355,2006-08-20,56.116667,-3.95,Stirling
356,2009-11-06,36.1988889,-115.1166667,North Las Vegas
357,1993-08-11,35.1494444,-90.0488889,Memphis
358,1976-01-17,40.623333,-74.601111,unknown
359,2009-11-29,32.5402778,-82.9038889,Dublin
360,1980-03-04,33.0183333,-80.1758333,Summerville
361,1979-06-10,47.9791667,-122.2008333,Everett
362,1995-11-15,37.2866667,-98.0255556,Harper
363,2014-07-12,27.273049,-80.358226,Port Saint Lucie
364,2011-01-14,39.73928,-75.224072,Harrison Township
365,1994-12-16,27.3361111,-82.5308333,Sarasota
366,2016-09-26,41.7758333,-72.5219444,Manchester
367,1984-04-18,27.2541667,-80.23,Jensen Beach
368,1975-02-13,37.2152778,-93.2980556,Springfield
369,1998-12-26,40.712784,-74.005941,City of New York
370,1975-10-26,43.6275,-89.7708333,Wisconsin Dells
371,1988-05-05,45.4208333,-122.6694444,Lake Oswego
372,1973-10-05,43.1547222,-77.6158333,City of Rochester
373,2001-09-01,40.4619444,-78.2,Williamsburg
374,2003-12-12,41.5733333,-87.7844444,Tinley Park
375,1970-07-14,40.165393,-75.282905,Whitpain Township
376,1986-08-14,30.2669444,-97.7427778,Austin
377,1993-11-16,47.9447222,-122.3033333,Mukilteo
378,2011-06-24,41.7797222,-71.4377778,unknown
379,1990-02-16,26.3180556,-80.1,Deerfield Beach
380,2008-03-18,35.9127778,-79.7177778,unknown
381,1980-09-28,41.3113889,-105.5905556,Laramie
382,1974-12-30,32.2216667,-110.9258333,Tucson
383,1979-04-29,40.7141667,-74.0063889,City of New York
384,1976-05-14,33.4330556,-79.1216667,Pawleys Island
385,1990-12-21,27.4986111,-82.575,Bradenton
386,1990-10-14,36.6913889,-79.8727778,Martinsville
387,2004-12-07,33.7447222,-117.9883333,unknown
388,2006-02-11,41.7355556,-111.8336111,Logan
389,2013-01-02,41.4119444,-83.8644444,Grand Rapids
390,1988-01-08,38.97,-109.32,unknown
391,2006-04-17,47.0566667,-122.7,unknown
392,2000-08-22,34.0233333,-84.6155556,Kennesaw
393,1996-02-23,37.775,-122.4183333,San Francisco
394,1992-06-28,34.1808333,-118.3080556,Burbank
395,2003-01-16,30.1586111,-85.6602778,Panama City
396,1978-06-15,53.383333,-2.6,Warrington
397,2006-09-04,32.7425,-117.0305556,Lemon Grove
398,1992-01-16,37.8066667,-100.3477778,Cimarron
399,1995-04-30,42.05,-71.8805556,Webster
400,1999-02-16,43.4261111,-73.7127778,Village of Lake George
401,2000-02-12,41.3683333,-82.1077778,Elyria
402,1995-09-30,42.2208333,-70.9402778,Weymouth
403,2011-07-11,57.149563,24.860333,Sigulda
404,2018-06-19,32.717886,-100.917618,Snyder
405,1987-04-29,37.775,-122.4183333,San Francisco
406,2010-11-28,47.6419444,-122.0791667,Sammamish
407,1993-05-07,46.5927778,-112.0352778,Helena
408,2005-11-03,40.7877778,-74.3886111,Florham Park
409,2000-06-02,33.3061111,-111.8405556,Chandler
410,1970-06-13,33.7669444,-118.1883333,Long Beach
411,1987-06-01,34.3077778,-118.4483333,Los Angeles
412,1990-11-06,43.6136111,-116.2025,Boise
413,2014-08-07,42.9047222,-76.3944444,Village of Skaneateles
414,2013-12-16,31.815,-85.8430556,Banks
415,2005-04-15,45.4872222,-122.8025,Beaverton
416,1974-02-27,40.0083333,-75.2608333,Narberth
417,2007-06-19,34.4838889,-114.3216667,Lake Havasu City
418,2017-11-05,30.3319444,-81.6558333,Jacksonville
419,1998-10-08,42.8922222,-76.1055556,Town of LaFayette
420,1982-11-29,32.0833333,-81.1,Savannah
421,2000-04-14,29.4238889,-98.4933333,San Antonio
422,1971-08-10,49.500881,5.986093,Esch-sur-Alzette
423,1993-12-17,40.6752778,-121.4297222,Old Station
424,1993-12-30,42.6055556,-83.15,Troy
425,2004-01-11,28.5380556,-81.3794444,Orlando
426,1972-04-12,30.3458333,-91.7230556,unknown
427,2011-08-29,47.6063889,-122.3308333,Seattle
428,1970-07-10,39.9611111,-82.9988889,Columbus
429,1978-09-01,29.2855556,-81.0561111,Ormond Beach
430,1983-06-29,45.2425,-113.8925,unknown
431,2012-07-07,38.8316667,-78.3166667,unknown
432,1979-09-10,40.2308333,-75.5225,Limerick Township
433,2016-08-05,35.0241667,-110.6966667,Winslow
434,2006-07-13,36.6102778,-88.3147222,Murray
435,1987-11-20,35.1472222,-107.8508333,Grants
436,1981-11-26,45.9047222,-122.7427778,Woodland
437,1973-01-27,34.365,-77.6308333,Topsail Beach
438,2013-04-11,42.3875,-71.1,Somerville
439,1972-10-06,37.8044444,-122.2697222,Oakland
440,1973-03-05,48.7052778,-119.4383333,Tonasket
441,1998-10-27,47.5302778,-122.0313889,Issaquah
442,1998-12-23,42.8141667,-73.94,City of Schenectady
443,1974-06-08,53.366667,-1.5,Sheffield
444,2017-12-04,35.8966667,-77.5361111,Tarboro
445,2010-07-31,47.4830556,-122.2158333,Renton
446,1993-04-25,37.180415,-82.92181,unknown
447,1974-07-30,39.7391667,-104.9841667,Denver
448,2005-06-23,33.6675,-84.0177778,Conyers
449,1982-06-10,40.8022222,-124.1625,Eureka
450,1982-05-09,33.8936111,-117.7263889,Yorba Linda
451,2018-09-29,41.8088889,-88.0111111,Downers Grove
452,2006-01-05,47.2033333,-122.2391667,Sumner
453,1994-02-08,32.7355556,-97.1077778,Arlington
454,1980-03-15,47.097707,-118.348614,unknown
455,1976-03-20,32.9341667,-97.0777778,Grapevine
456,1987-02-28,39.1652778,-86.5263889,Bloomington
457,1984-07-13,41.6027778,-87.7438889,Oak Forest
458,1981-06-05,51.767787,0.087806,Harlow
459,2000-09-27,33.4666667,-79.1,Litchfield Beach
460,1971-12-19,41.626389,-87.711667,Midlothian
461,2010-06-22,39.12,-88.5433333,Effingham
462,1980-03-10,41.6252778,-87.7175,Midlothian
463,1994-08-07,43.263013,-2.934985,Bilbao
464,1981-08-07,39.0838889,-77.1530556,Rockville
465,1977-12-02,55.483333,-125.983333,Area C (Stuart Lake/Omineca Valley)
466,1982-12-14,52.295255,5.160424,Naarden
467,1999-12-02,41.85,-87.65,Chicago
468,2000-06-05,32.7152778,-117.1563889,San Diego
469,1989-02-15,41.6266667,-93.7119444,Urbandale
470,1993-07-08,38.791,-94.2673,Pleasant Hill
471,2007-11-08,34.1083333,-117.2888889,San Bernardino
472,1993-08-09,64.7511111,-147.3494444,North Pole
473,1993-07-29,46.9966667,-120.5466667,Ellensburg
474,1996-08-03,-43.532054,172.636225,Christchurch
475,1998-01-20,42.6611111,-70.9972222,Boxford
476,1998-01-28,33.4483333,-112.0733333,Phoenix
477,1982-04-20,37.485,-119.9652778,Mariposa
478,1987-04-13,34.1161111,-118.1494444,South Pasadena
479,1973-07-18,34.2783333,-119.2922222,Ventura
480,1984-09-19,25.7738889,-80.1938889,Miami
481,2002-05-01,33.7669444,-118.1883333,Long Beach
482,1987-07-26,22.0783333,-159.3219444,Kapaa
483,1972-04-09,32.9627778,-117.035,Poway
484,1982-05-03,34.1975,-119.1761111,Oxnard
485,1976-03-11,26.3351,17.228331,unknown
486,1995-10-29,33.4147222,-111.9086111,Tempe
487,1983-04-09,46.6022222,-120.5047222,Yakima
488,2008-09-21,33.888629,35.495479,المصيطبة
489,1991-09-25,41.8730556,-72.1219444,Ashford
490,1983-05-02,42.068889,-123.720833,unknown
491,2010-11-14,30.2669444,-97.7427778,Austin
492,1976-01-24,39.1619444,-84.4569444,Norwood
493,1987-04-03,42.3758333,-82.9375,Grosse Pointe Park
494,1996-12-22,47.0380556,-122.8994444,Olympia
495,1975-03-19,33.635026,-85.795908,Anniston
496,2013-08-24,48.2766667,-116.5522222,Sandpoint
497,2006-02-28,39.8433333,-86.3977778,Brownsburg
498,1994-08-23,39.9547222,-82.8122222,Reynoldsburg
499,1988-01-30,33.0580556,-112.0469444,Maricopa
500,1976-11-15,42.983333,-81.25,London
501,1977-03-20,44.870816,-101.043482,unknown
502,1985-11-28,34.185,-83.9252778,Flowery Branch
503,2007-01-11,42.225,-73.735,City of Hudson
504,1985-08-12,37.0030556,-88.2344444,Grand Rivers
505,1999-04-21,42.6055556,-83.15,Troy
506,2016-07-17,32.7152778,-117.1563889,San Diego
507,1985-03-14,39.0436111,-77.4877778,Ashburn
508,1983-01-13,34.2241667,-118.2391667,unknown
509,1974-04-20,37.6922222,-97.3372222,Wichita
510,1989-02-25,39.0216667,-105.7952778,Hartsel
511,2006-09-11,36.6080556,-94.4475,Lanagan
512,2011-03-28,38.8966667,-104.9716667,unknown
513,1995-07-22,33.6602778,-117.9983333,Huntington Beach
514,1997-08-04,39.9852778,-104.82,Brighton
515,1976-07-24,48.76,-98.3677778,Langdon
516,2013-01-15,41.3722222,-73.7338889,Mahopac
517,1997-08-31,39.0916667,-104.8722222,Monument
518,2011-09-06,36.7280556,-108.2180556,Farmington
519,1974-12-01,47.551493,-101.002012,unknown
520,1981-01-14,40.7488889,-74.2616667,South Orange
521,1986-01-23,41.1838889,-96.0308333,La Vista
522,1976-01-12,28.5555556,-82.4505556,Brooksville
523,2013-09-17,34.1741667,-86.6163889,Holly Pond
524,2005-11-03,27.9905556,-82.6933333,Palm Harbor
525,2000-03-06,34.5325,-83.985,Dahlonega
526,2013-08-04,40.6975,-74.2636111,Union
527,1972-12-12,33.4222222,-111.8219444,Mesa
528,1988-06-26,39.6411111,-85.1411111,Connersville
529,2003-07-03,42.2625,-71.8027778,Worcester
530,1981-11-26,29.1691667,-95.4316667,Angleton
531,1992-07-17,47.9791667,-122.2008333,Everett
532,1985-09-08,47.5002778,-111.3,Great Falls
533,1993-09-24,44.0463889,-123.0208333,Springfield
534,2011-02-10,50.183333,-98.316667,Rural Municipality of Portage la Prairie
535,1974-09-28,39.1141667,-94.6272222,Kansas City
536,2013-12-14,42.8613889,-105.8716667,Glenrock
537,1982-04-23,37.8144444,-82.8072222,Paintsville
538,1970-03-04,34.132163,-84.300666,Milton
539,1990-10-14,43.0125,-83.6875,Flint
540,1979-03-23,47.5963889,-120.6602778,Leavenworth
541,2012-08-25,39.0638889,-108.55,Grand Junction
542,2000-09-08,38.0527778,-81.1041667,Fayetteville
543,1970-04-16,41.611143,-86.722719,La Porte
544,1987-07-20,43.8261111,-111.7888889,Rexburg
545,2008-01-24,52.633333,1.3,Norwich
546,1973-12-28,40.7583333,-82.5155556,Mansfield
547,1981-07-21,41.8786111,-71.3830556,unknown
548,1976-07-22,45.9933333,-123.9213889,Seaside
549,2011-01-27,37.566535,126.977969,서울
550,1971-01-04,45.6,-73.45,Boucherville
551,1975-01-07,61.2180556,-149.9002778,Anchorage
552,1994-12-08,42.7005556,-74.0341667,Town of Guilderland
553,1972-01-09,34.5097222,-88.2091667,Belmont
554,1978-04-16,40.1744444,-74.9230556,Langhorne
555,1995-04-03,41.8488889,-72.5722222,South Windsor
556,1994-04-27,42.4472222,-71.225,Lexington
557,1998-07-14,28.4319444,-82.6644444,unknown
558,1995-01-21,32.753472,-79.952845,Charleston
559,1980-01-22,41.5580556,-73.0519444,Waterbury
560,1980-05-13,49.9,-119.483333,Kelowna
561,2010-11-21,44.0536111,-71.1288889,Conway
562,1988-01-21,42.9316667,-76.5663889,City of Auburn
563,2017-06-03,38.9886111,-78.3588889,Strasburg
564,1981-12-02,41.2380556,-81.8419444,Brunswick
565,2005-01-18,33.4041667,-79.9219444,St. Stephen
566,1986-10-07,44.0463889,-123.0208333,Springfield
567,2008-05-12,38.9516667,-92.3338889,Columbia
568,2015-07-24,36.3955556,-97.8780556,Enid
569,1973-09-30,41.5316667,-94.0094444,De Soto
570,2013-02-12,32.8525,-106.106389,unknown
571,2007-06-29,37.7944444,-93.5777778,Humansville
572,1993-07-04,45.4647222,-98.4861111,Aberdeen
573,1977-04-30,27.9011111,-81.5861111,Lake Wales
574,1971-10-30,41.7830556,-123.0591667,unknown
575,2016-03-17,36.175,-115.1363889,Las Vegas
576,2018-01-31,39.0997222,-94.5783333,Downtown Kansas City
577,2010-03-26,37.9513889,-91.7711111,Rolla
578,2011-06-30,55.783333,-4.0,Motherwell
579,2008-04-17,41.9141667,-88.3086111,St. Charles
580,1992-10-16,34.6608333,-87.6944444,Tuscumbia
581,1985-10-16,26.527578,-82.194817,unknown
582,2015-10-02,32.237147,-80.860387,Bluffton
583,1980-10-28,40.3055556,-89.6027778,unknown
584,2008-04-04,43.12,-85.56,Rockford
585,2012-05-03,27.3361111,-82.5308333,Sarasota
586,2016-11-30,43.3033333,-91.7855556,Decorah
587,1989-01-25,45.6388889,-122.6602778,Vancouver
588,2007-02-22,32.9125,-96.6386111,Garland
589,1978-09-27,35.8680556,-83.5619444,Sevierville
590,2015-01-05,36.8527778,-75.9783333,Virginia Beach
591,1996-05-31,20.653407,-105.225332,Puerto Vallarta
592,1995-08-02,28.5555556,-82.4505556,Brooksville
593,1975-12-03,46.2113889,-119.1361111,Kennewick
594,2012-03-05,33.9022222,-118.0808333,Norwalk
595,2009-11-15,38.8338889,-104.8208333,Colorado Springs
596,2007-12-01,39.5358333,-76.3486111,Bel Air
597,1991-12-12,35.3733333,-119.0177778,Bakersfield
598,1987-02-26,34.7738889,-79.4630556,Laurinburg
599,1970-12-14,32.2216667,-110.9258333,Tucson
600,1986-07-25,38.8338889,-104.8208333,Colorado Springs
601,2018-01-26,47.6063889,-122.3308333,Seattle
602,1997-12-08,43.2322222,-99.43,Gregory
603,1994-09-30,41.1238889,-100.765,North Platte
604,1980-11-20,29.7955556,-90.8227778,Thibodaux
605,2001-03-04,27.273049,-80.358226,Port Saint Lucie
606,1996-09-02,35.71,-86.3994444,unknown
607,2008-03-16,41.0813889,-81.5191667,Akron
608,2017-10-17,44.3530556,-121.1766667,Terrebonne
609,2000-09-05,44.9444444,-93.0930556,Saint Paul
610,2001-01-13,40.8813889,-82.6619444,Shelby
611,2005-01-30,64.8377778,-147.7163889,Fairbanks
612,2003-04-19,44.6366667,-123.1047222,Albany
613,2002-05-28,44.0077778,-76.0447222,Village of Dexter
614,1986-03-28,36.4497222,-76.0158333,Currituck
615,2001-07-05,40.7608333,-111.8902778,Salt Lake City
616,1973-11-27,18.3966667,-67.1136111,Moca
617,1984-05-19,47.6063889,-122.3308333,Seattle
618,1977-12-16,-37.813938,144.963425,Melbourne
619,1979-01-07,44.860556,24.867778,Pitești
620,1992-11-07,27.2436111,-80.83,Okeechobee
621,1977-12-19,37.3394444,-121.8938889,San Jose
622,1975-03-31,33.6602778,-117.9983333,Huntington Beach
623,1991-03-28,37.775,-122.4183333,San Francisco
624,1991-12-07,36.019018,129.343481,포항시
625,2001-11-19,30.4211111,-87.2169444,Pensacola
626,2003-06-24,29.6908333,-95.2088889,Pasadena
627,2001-04-01,33.5816667,-116.9313889,Sage
628,1985-02-24,37.3394444,-121.8938889,San Jose
629,2016-10-28,45.1680556,-84.9161111,Boyne Falls
630,1993-10-16,42.3313889,-83.0458333,Detroit
631,2005-12-12,34.1513889,-89.6313889,Water Valley
632,1997-01-10,26.7052778,-80.0366667,Palm Beach
633,2004-09-15,33.4483333,-112.0733333,Phoenix
634,1981-05-20,40.7972222,-75.9697222,Tamaqua
635,1973-03-12,60.631811,24.857883,Hyvinkää
636,1980-10-17,37.9230556,-90.5552778,Bonne Terre
637,2006-06-16,33.5091667,-111.8983333,Scottsdale
638,2004-03-19,38.7072222,-121.28,Citrus Heights
639,1976-08-18,33.3527778,-111.7883333,Gilbert
640,1994-08-25,45.7186111,-123.9338889,Manzanita
641,2005-03-20,51.550501,-0.304841,London
642,1978-09-04,37.9780556,-122.03,Concord
643,1991-09-22,34.4269444,-77.5463889,Surf City
644,1985-06-22,38.35,-104.7222222,unknown
645,1996-09-28,40.4166667,-86.8752778,Lafayette
646,1973-11-01,34.8986111,-117.0219444,Barstow
647,2008-11-22,10.666667,-61.516667,Port of Spain
648,1983-10-30,31.9491667,-98.7369444,unknown
649,1999-02-07,32.544416,-117.030123,San Diego
650,1990-11-28,34.8963889,-98.2002778,Cyril
651,2014-01-09,-25.274398,133.775136,unknown
652,1980-06-09,34.1083333,-117.2888889,San Bernardino
653,2013-12-05,33.9163889,-78.1613889,Oak Island
654,2003-01-23,40.3355556,-75.9272222,Reading
655,2010-10-25,39.8366667,-105.0366667,Westminster
656,1977-06-13,43.1319444,-86.1547222,Fruitport
657,1979-07-01,32.0833333,-81.1,Savannah
658,1999-02-10,38.005,-121.8047222,Antioch
659,2008-09-06,32.753472,-79.952845,Charleston
660,2018-05-02,46.0647222,-118.3419444,Walla Walla
661,1996-07-15,38.7133333,-77.7955556,Warrenton
662,1976-06-27,43.866667,-79.033333,Ajax
663,1972-04-03,50.45,-3.716667,South Hams
664,1975-04-25,52.97894,-0.026577,Boston
665,1993-06-07,42.6666667,-71.7055556,Townsend
666,1999-08-29,34.1705556,-118.8366667,Thousand Oaks
667,2007-03-04,1.530976,110.34422,Kuching
668,2018-04-21,33.745573,-117.867834,Santa Ana
669,1994-05-24,27.5155556,-97.8558333,Kingsville
670,2002-12-30,40.8583333,-73.1,Town of Brookhaven
671,1995-10-27,43.580418,7.125102,Antibes
672,1988-10-08,40.8666667,-124.0816667,Arcata
673,1996-08-03,43.689456,-79.458254,Toronto
674,1983-08-07,-38.17828,146.260986,Moe
675,2003-10-31,39.6577778,-77.1747222,Taneytown
676,1999-08-03,33.2341667,-97.5858333,Decatur
677,1998-02-11,27.9472222,-82.4586111,Tampa
678,2006-10-22,36.7477778,-119.7713889,Fresno
679,1986-11-09,27.4986111,-82.575,Bradenton
680,2006-12-18,34.4077778,-111.4927778,Strawberry
681,1997-06-04,37.305,-93.4283333,Willard
682,1972-10-13,38.3605556,-75.5997222,Salisbury
683,2009-11-12,38.7244444,-83.0133333,unknown
684,2015-01-03,32.7355556,-97.1077778,Arlington
685,1979-11-13,18.220833,-66.590149,Jayuya
686,1973-05-05,39.8863889,-83.4483333,London
687,2013-05-27,40.4641667,-81.0019444,unknown
688,1992-04-21,35.4736111,-81.2547222,Lincolnton
689,2012-08-09,36.725775,-120.373613,Mendota
690,1997-02-14,25.7738889,-80.1938889,Miami
691,1998-06-18,44.135069,-103.439534,unknown
692,1993-11-01,41.7625,-70.7222222,Wareham
693,2017-10-21,44.7677778,-93.2775,Burnsville
694,2014-04-26,35.6869444,-105.9372222,Santa Fe
695,1973-04-14,-40.225336,175.56748,Feilding
696,1977-09-25,-27.47101,153.024292,Brisbane City
697,1989-03-05,29.4238889,-98.4933333,San Antonio
698,1982-07-01,32.525,-93.75,Shreveport
699,1986-09-30,44.8486111,-123.2327778,Monmouth
700,1994-01-19,39.9347222,-75.0311111,Cherry Hill Township
701,1976-11-17,44.4758333,-73.2125,Burlington
702,1975-06-20,42.1102778,-88.0341667,Palatine
703,1997-12-08,36.175,-115.1363889,Las Vegas
704,2012-07-31,39.0180556,-91.8969444,Auxvasse
705,2008-03-12,32.5419444,-97.3205556,Burleson
706,2009-03-01,28.5388889,-80.6722222,unknown
707,2007-05-24,-22.932382,-42.486684,Saquarema
708,2011-01-03,45.6388889,-122.6602778,Vancouver
709,1983-09-02,35.3733333,-119.0177778,Bakersfield
710,1974-12-22,32.9786111,-115.5294444,Brawley
711,1981-04-20,40.3916667,-111.85,Lehi
712,1979-03-02,28.635308,77.22496,Delhi
713,1987-08-09,36.5958333,-91.6455556,Koshkonong
714,2011-11-24,38.3605556,-81.7375,Dunbar
715,1981-05-14,27.7705556,-82.6794444,Saint Petersburg
716,1995-04-04,33.7122222,-84.1052778,Lithonia
717,2018-10-12,44.7983333,-69.8897222,Anson
718,1995-03-19,37.7272222,-89.2166667,Carbondale
719,2001-01-19,24.5552778,-81.7827778,Key West
720,1994-11-22,28.4055556,-80.605,unknown
721,2018-05-07,28.9669444,-98.4783333,Pleasanton
722,1983-01-29,37.9963889,-105.6991667,Crestone
723,2011-04-08,32.7152778,-117.1563889,San Diego
724,2014-03-15,39.0997222,-94.5783333,Downtown Kansas City
725,2007-09-22,42.1947222,-122.7083333,Ashland
726,1989-02-19,39.8963889,-80.1794444,Waynesburg
727,2014-09-12,33.4708333,-81.975,Augusta
728,2012-12-25,43.2366667,-83.9063889,Burt
729,1994-11-16,33.1433333,-117.1652778,San Marcos
730,1984-04-09,39.3111111,-94.9222222,Leavenworth
731,1970-09-18,43.605289,-116.416977,Meridian
732,1988-07-06,30.0797222,-95.4169444,Spring
733,2006-05-18,34.6227778,-97.3961111,Elmore City
734,1988-09-19,33.8752778,-117.5655556,Corona
735,1996-10-12,43.9,-78.866667,Oshawa
736,1993-08-14,26.3583333,-80.0833333,Boca Raton
737,1998-11-22,32.2216667,-110.9258333,Tucson
738,1974-12-12,25.317645,82.973914,Varanasi
739,1971-07-30,32.6080556,-80.085,Kiawah Island
740,1980-09-21,39.0169444,-94.2813889,Blue Springs
741,2002-02-12,34.2694444,-118.7805556,Simi Valley
742,1974-07-15,34.49,-77.4319444,North Topsail Beach
743,1971-08-17,36.3275,-119.6447222,Hanford
744,2017-10-12,40.2969444,-111.6938889,Orem
745,1972-03-24,39.5297222,-119.8127778,Reno
746,1991-11-09,40.8936111,-83.6502778,Arlington
747,2017-03-15,27.3361111,-82.5308333,Sarasota
748,2016-11-13,37.4575,-83.2511111,unknown
749,1996-06-09,40.9477778,-90.3711111,Galesburg
750,2015-08-30,35.9605556,-83.9208333,Knoxville
751,1985-07-25,34.2283333,-118.5358333,Los Angeles
752,2011-12-25,48.0841667,-121.9675,Granite Falls
753,2015-10-08,45.766667,-79.4,Sundridge
754,2013-09-10,26.9338889,-80.0944444,unknown
755,2013-12-03,33.5016667,-117.6616667,San Juan Capistrano
756,1993-12-17,34.9488889,-85.2569444,Fort Oglethorpe
757,2006-12-26,35.4347222,-87.3127778,unknown
758,1977-01-22,36.1302778,-118.8172222,unknown
759,2001-01-23,41.2813889,-73.4986111,Ridgefield
760,1970-11-11,50.855638,0.552577,St Leonards
761,1975-10-08,40.1052778,-85.6802778,Anderson
762,2000-08-23,47.8555556,-121.9697222,Monroe
763,1992-02-18,47.6816667,-122.2075,Kirkland
764,2017-07-28,35.9488889,-85.0269444,Crossville
765,1998-09-20,41.3197222,-81.6269444,Brecksville
766,1975-08-12,40.7141667,-74.0063889,City of New York
767,1987-01-27,35.1894444,-114.0522222,Kingman
768,1995-04-13,28.476946,-80.788666,unknown
769,2004-02-08,34.1591667,-118.5002778,Los Angeles
770,1979-02-02,40.7141667,-74.0063889,City of New York
771,1970-07-21,37.8044444,-122.2697222,Oakland
772,1999-05-12,41.88,-88.0077778,Lombard
773,2005-07-30,36.665547,-106.691032,unknown
774,2003-03-06,38.907231,-77.036464,Washington
775,1985-09-21,31.9636111,-95.2702778,Jacksonville
776,2002-03-05,41.7197222,-72.8325,Farmington
777,1995-11-19,40.4405556,-79.9961111,Pittsburgh
778,1989-02-05,41.8458333,-71.0833333,Berkley
779,2015-10-12,29.5686111,-97.9644444,Seguin
780,1976-12-06,53.5,-2.216667,Manchester
781,1999-10-19,32.9544444,-97.0147222,Coppell
782,1981-08-04,33.3527778,-111.7883333,Gilbert
783,1983-12-13,35.9605556,-83.9208333,Knoxville
784,1985-06-22,47.9130556,-122.0969444,Snohomish
785,2018-03-01,41.6302778,-87.8538889,Orland Park
786,1987-01-28,41.4047222,-81.7230556,Parma
787,1972-06-20,40.8713889,-73.4572222,Town of Huntington
788,1978-06-20,32.6208333,-83.6,unknown
789,1998-05-22,46.183333,-62.883333,Vernon Bridge
790,1981-05-08,39.9375,-77.6613889,Chambersburg
791,1970-10-08,33.9525,-84.55,Marietta
792,2016-12-04,43.193852,-71.572395,Concord
793,1986-02-19,47.6588889,-117.425,Spokane
794,1984-04-17,42.5630556,-114.46,Twin Falls
795,1972-07-20,44.239162,-87.641195,Mishicot
796,2018-05-13,41.5733333,-87.7844444,Tinley Park
797,2001-04-26,33.1580556,-117.3497222,Carlsbad
798,1994-01-24,44.5191667,-88.0197222,Green Bay
799,2014-02-24,35.5083333,-78.3397222,Smithfield
800,1999-05-29,48.1183333,-123.4294444,Port Angeles
801,2012-09-15,32.3716667,-112.86,Ajo
802,1997-11-24,42.495556,-82.900278,Saint Clair Shores
803,2011-09-16,42.3583333,-71.0602778,Boston
804,2001-02-22,39.2319444,-84.3783333,Blue Ash
805,1998-02-23,41.2230556,-111.9730556,Ogden
806,1979-09-27,52.22917,5.166897,Hilversum
807,1989-07-29,37.6922222,-97.3372222,Wichita
808,1975-09-23,41.5733333,-87.7844444,Tinley Park
809,2007-08-10,42.0986111,-75.9183333,City of Binghamton
810,2011-09-01,46.5,-80.966667,Greater Sudbury
811,2017-08-16,41.6302778,-87.8538889,Orland Park
812,2012-01-28,33.4355556,-112.3488889,Avondale
813,1996-07-27,36.6436111,-93.2183333,Branson
814,1979-11-02,44.5191667,-88.0197222,Green Bay
815,2006-04-21,41.5733333,-87.7844444,Tinley Park
816,1974-11-28,41.5733333,-87.7844444,Tinley Park
817,2018-03-21,41.5733333,-87.7844444,Tinley Park
818,2010-10-04,41.6269444,-79.6738889,Titusville
819,2007-11-16,45.4611111,-123.9666667,Oceanside
820,1973-04-10,47.2044444,-121.9902778,Enumclaw
821,1970-08-03,41.5733333,-87.7844444,Tinley Park
822,2000-01-29,26.6402778,-81.8725,Fort Myers
823,2000-06-14,41.5733333,-87.7844444,Tinley Park
824,1999-08-25,40.0991667,-83.1141667,Dublin
825,1992-05-06,42.9855556,-95.8733333,Granville
826,1972-01-04,38.2719444,-87.6877778,Owensville
827,1971-01-01,40.8261111,-73.5025,Syosset
828,1987-03-26,29.7352778,-94.9772222,Baytown
829,1997-10-08,49.483333,-113.95,Pincher Creek
830,1994-04-12,29.7630556,-95.3630556,Houston
831,1993-01-01,44.7966667,-68.7619444,Brewer
832,1974-05-15,34.7083333,-120.4666667,Vandenberg Village
833,2019-01-16,35.7719444,-78.6388889,Raleigh
834,2006-03-16,36.175,-115.1363889,Las Vegas
835,2006-04-09,38.9905556,-77.0263889,Silver Spring
836,1988-12-30,46.3,-79.45,North Bay
837,2019-02-03,47.6063889,-122.3308333,Seattle
838,2015-06-30,29.9544444,-90.075,New Orleans
839,1980-12-24,41.4036111,-95.0136111,Atlantic
840,2014-02-21,36.6002778,-121.8936111,Monterey
841,2008-11-16,35.8680556,-83.5619444,Sevierville
842,1981-02-06,34.1063889,-117.5922222,Rancho Cucamonga
843,1990-04-03,41.24,-83.6433333,Cygnet
844,1982-07-06,41.898794,-87.946681,Elmhurst
845,2012-09-23,32.4616667,-90.1152778,Madison
846,2005-08-22,51.676111,-4.156667,Llanelli
847,2002-06-13,43.4194444,-83.9508333,City of Saginaw
848,2012-09-28,36.5869444,-93.9658333,Washburn
849,1976-07-21,44.0583333,-121.3141667,Bend
850,2007-10-10,43.6136111,-116.2025,Boise
851,1981-03-23,47.9791667,-122.2008333,Everett
852,1999-08-01,36.3302778,-119.2911111,Visalia
853,2009-07-28,40.4405556,-79.9961111,Pittsburgh
854,2004-12-06,42.5158333,-73.6105556,Village of Nassau
855,2002-11-12,-37.953411,176.990801,Whakatāne
856,2014-12-08,45.8994444,-108.3008333,unknown
857,1993-04-25,29.7630556,-95.3630556,Houston
858,1977-09-13,61.2180556,-149.9002778,Anchorage
859,1981-11-08,50.45,-104.616667,Regina
860,1978-02-25,32.7833333,-96.8,Dallas
861,2016-02-21,41.1383333,-81.8638889,Medina
862,2007-06-26,45.0616667,-83.4327778,Alpena
863,1991-07-19,42.2458333,-84.4013889,Jackson
864,1984-02-28,40.057838,-74.137183,Brick Township
865,2007-05-05,41.85,-87.65,Chicago
866,1980-05-31,38.0194444,-122.1330556,Martinez
867,1974-06-21,42.1275,-87.8288889,Northbrook
868,1998-02-19,25.7738889,-80.1938889,Miami
869,1990-09-17,41.7180556,-92.9072222,Kellogg
870,2006-07-30,38.6272222,-90.1977778,Saint Louis
871,2016-12-06,59.6425,-151.5483333,Homer
872,1992-06-10,41.4569444,-122.8936111,Etna
873,2015-11-19,38.4191667,-82.4452778,Huntington
874,1988-08-12,30.3672222,-89.0927778,Gulfport
875,2003-10-01,46.1469444,-122.9072222,Kelso
876,2008-12-11,36.4275,-84.9319444,Jamestown
877,1972-09-19,39.0169444,-94.2813889,Blue Springs
878,1980-12-19,38.6272222,-90.1977778,Saint Louis
879,1978-09-21,35.0463889,-81.9819444,unknown
880,2007-12-12,29.3991667,-95.8375,Needville
881,1977-12-08,36.6913889,-79.8727778,Martinsville
882,1976-02-04,44.05,-79.45,Newmarket
883,1990-07-04,41.3661111,-81.8544444,Berea
884,1982-11-23,39.5358333,-76.3486111,Bel Air
885,1993-06-25,42.9633333,-85.6680556,Grand Rapids
886,1986-09-26,29.7630556,-95.3630556,Houston
887,1996-03-20,39.5538889,-83.2569444,New Holland
888,1981-01-08,44.4894444,-68.8575,Stockton Springs
889,1985-01-13,38.2544444,-104.6086111,Pueblo
890,2013-05-23,30.0463889,-94.885,Dayton
891,1993-01-04,44.154504,-75.708824,Village of Philadelphia
892,1975-03-06,41.2222222,-73.0569444,Milford
893,2017-01-14,44.9430556,-123.0338889,Salem
894,1982-04-17,41.7688889,-72.4338889,Bolton
895,1994-01-24,41.5580556,-73.0519444,Waterbury
896,1983-03-21,33.6188889,-117.9280556,Newport Beach
897,1983-09-12,33.4222222,-111.8219444,Mesa
898,2008-12-05,32.7866667,-79.795,Isle of Palms
899,1983-09-06,42.2711111,-89.0938889,Rockford
900,2018-09-19,32.3666667,-86.3,Montgomery
901,1986-04-18,38.6786111,-121.7722222,Woodland
902,1987-07-24,36.3352778,-92.385,Mountain Home
903,2000-09-21,39.728494,-121.837478,Chico
904,1996-02-10,30.6694444,-81.4627778,Fernandina Beach
905,2001-12-29,40.335648,-75.926875,Reading
906,1998-10-16,47.44732,-122.45985,Vashon
907,2007-06-20,40.0016667,-76.8505556,Dover
908,1973-07-09,38.550608,-90.333172,Affton
909,1990-12-10,40.8041667,-74.0125,North Bergen
910,1988-08-14,34.8833333,-82.7075,Pickens
911,2003-02-09,35.5322222,-97.9547222,El Reno
912,1991-11-16,39.5297222,-119.8127778,Reno
913,1979-03-06,48.1183333,-123.4294444,Port Angeles
914,1991-10-05,44.3236111,-93.9577778,stp
915,2005-06-18,37.2683333,-93.1169444,Strafford
916,1980-03-17,42.3608333,-85.8794444,Gobles
917,1988-08-11,40.2125,-78.9291667,Conemaugh Township
918,1997-05-23,41.3136111,-81.7247222,North Royalton
919,1979-03-06,39.9555556,-86.0138889,Fishers
920,1989-07-30,27.2436111,-80.83,Okeechobee
921,1973-04-02,38.083403,-122.763304,unknown
922,2016-08-07,16.691308,74.244866,Kolhapur
923,2001-06-29,33.9075,-86.6152778,Locust Fork
924,1976-03-26,32.7355556,-97.1077778,Arlington
925,1990-04-04,44.6366667,-123.1047222,Albany
926,2008-10-17,29.9688889,-95.6969444,Cypress
927,1974-08-07,44.6780556,-69.9369444,Mercer
928,1973-06-24,41.5833333,-87.5,Hammond
929,1983-07-02,47.6063889,-122.3308333,Seattle
930,2005-03-11,39.2902778,-76.6125,Baltimore
931,1992-01-04,38.4177778,-82.5863889,South Point
932,1992-07-29,42.12,-85.5327778,Vicksburg
933,1990-09-28,38.6786111,-121.7722222,Woodland
934,2011-11-02,39.3258333,-77.3516667,Urbana
935,2018-04-25,32.5091667,-92.1191667,Monroe
936,1985-05-17,42.3211111,-85.1797222,Battle Creek
937,2003-07-16,35.46756,-97.516428,Oklahoma City
938,1998-03-17,40.9311111,-73.8991667,City of Yonkers
939,1993-03-13,44.233333,-76.483333,Kingston
940,1979-12-25,30.1658333,-81.7066667,Orange Park
941,2011-02-11,42.670782,-83.032993,Shelby Charter Township
942,1993-04-16,38.9952778,-110.1611111,Green River
943,1990-10-06,43.3227778,-76.4175,City of Fulton
944,1978-12-28,25.7738889,-80.1938889,Miami
945,1996-06-10,37.5958333,-122.0180556,Union City
946,1984-02-17,48.5569444,-113.0125,Browning
947,1985-01-29,36.9786111,-76.4283333,Newport News
948,2016-12-21,27.3361111,-82.5308333,Sarasota
949,2005-10-22,39.1619444,-84.4569444,Norwood
950,1995-12-12,40.8336111,-75.7141667,Lehighton
951,1993-04-17,38.9822222,-94.6705556,Overland Park
952,1997-09-26,43.1280556,-121.045,Silver Lake
953,2009-04-29,35.9605556,-85.8141667,Smithville
954,1972-09-20,32.514947,-117.038247,Tijuana
955,1992-04-25,41.0097222,-95.2252778,Red Oak
956,1972-05-04,30.4013889,-86.8636111,Navarre
957,2002-03-22,31.1238889,-97.9027778,Copperas Cove
958,1988-11-03,34.0341667,-94.5747222,unknown
959,1978-10-10,52.083333,-2.75,Burghill
960,1997-05-22,41.2586111,-95.9375,Omaha
961,2006-05-24,33.4936111,-117.1475,Temecula
962,1987-03-27,33.5091667,-111.8983333,Scottsdale
963,2006-01-28,32.905,-80.6669444,Walterboro
964,2017-10-13,42.2711111,-89.0938889,Rockford
965,1981-05-01,40.6686111,-74.1147222,Bayonne
966,2015-11-18,39.0997222,-94.5783333,Downtown Kansas City
967,1975-10-24,40.155312,26.41416,Çanakkale Merkez
968,1986-10-11,41.0047222,-121.4372222,Fall River Mills
969,1980-03-09,39.9947222,-84.4080556,Laura
970,1974-03-07,34.0522222,-118.2427778,Los Angeles
971,2006-10-26,33.8752778,-117.5655556,Corona
972,1973-04-11,42.353244,-114.575039,Hollister
973,1992-11-16,37.3394444,-121.8938889,San Jose
974,1973-07-16,38.0194444,-122.1330556,Martinez
975,2003-11-04,27.9563889,-97.9366667,Orange Grove
976,1971-09-24,35.6225,-117.67,Ridgecrest
977,1996-05-19,36.175,-115.1363889,Las Vegas
978,2006-05-22,16.8,96.15,Yangon
979,2011-12-23,39.7683333,-86.1580556,Indianapolis
980,1999-12-27,29.3991667,-95.8375,Needville
981,2013-02-07,41.974163,-87.907321,Chicago
982,1997-07-16,41.49,-71.3133333,Newport
983,2009-09-03,44.7677778,-93.2775,Burnsville
984,1986-03-27,42.2713889,-93.9269444,Stratford
985,1992-12-24,47.6063889,-122.3308333,Seattle
986,1982-04-22,39.7155556,-82.9530556,Ashville
987,2005-01-22,38.0683333,-120.5386111,Angels Camp
988,1971-10-04,46.955,-112.6808333,unknown
989,2018-12-02,34.4358333,-119.8266667,Goleta
990,1983-06-08,42.525,-71.7602778,Leominster
991,2017-12-08,45.5,-73.583333,Montréal
992,1971-01-15,33.3061111,-111.8405556,Chandler
993,2017-02-26,12.879721,121.774017,Concepcion
994,1971-02-01,40.7141667,-74.0063889,City of New York
995,1998-08-02,40.8830556,-85.4975,Huntington
996,1999-07-10,34.1063889,-117.5922222,Rancho Cucamonga
997,1996-10-16,44.8897222,-93.3497222,Edina
998,2000-09-29,34.206818,-118.200028,La Cañada Flintridge
999,1994-01-27,38.5816667,-121.4933333,Sacramento
1000,1985-03-01,41.3030556,-74.7938889,Montague Township
1001,1990-01-19,39.6416667,-77.7202778,Hagerstown
1002,2016-08-14,42.9275,-83.63,Grand Blanc
1003,2016-03-01,40.015892,-74.956425,Delran Township
1004,1974-04-21,33.8491667,-118.3875,Redondo Beach
1005,1989-03-08,42.9633333,-85.6680556,Grand Rapids
1006,1988-02-14,33.6305556,-112.3325,Surprise
1007,2002-12-20,22.2119444,-159.4122222,Kilauea
1008,1970-12-15,45.266667,-66.066667,City of Saint John
1009,1977-02-20,28.5380556,-81.3794444,Orlando
1010,2004-01-05,38.1041667,-122.2555556,Vallejo
1011,1996-09-11,41.193237,-73.677574,Town of Bedford
1012,1985-06-06,41.6716667,-72.9497222,Bristol
1013,2016-12-12,43.3227778,-76.4175,City of Fulton
1014,1988-02-10,21.3069444,-157.8583333,Honolulu
1015,2017-06-05,38.893002,-77.045526,Washington
1016,2018-02-04,42.3802778,-72.5236111,Amherst
1017,1977-05-19,25.9013889,-97.4972222,Brownsville
1018,1984-07-01,40.7141667,-74.0063889,City of New York
1019,1982-03-13,33.969413,-84.562954,Marietta
1020,1993-08-02,38.948959,-83.405746,Peebles
1021,2008-12-26,38.3697222,-90.3783333,Imperial
1022,2005-01-12,33.3061111,-111.8405556,Chandler
1023,1992-02-06,32.436381,-111.222442,Marana
1024,2011-03-22,37.6819444,-121.7669444,Livermore
1025,1978-10-04,43.801356,-91.239581,La Crosse
1026,2018-08-06,51.083333,-114.083333,Calgary
1027,2004-01-16,34.0522222,-118.2427778,Los Angeles
1028,1976-12-11,41.6361111,-70.9347222,New Bedford
1029,2019-05-06,31.8541667,-110.9930556,unknown
1030,1979-03-16,37.1305556,-121.6533333,Morgan Hill
1031,1991-09-04,42.6805556,-83.1338889,Rochester
1032,1992-07-02,33.9022222,-118.0808333,Norwalk
1033,1987-10-07,37.4852778,-122.2352778,Redwood City
1034,2012-09-07,26.2708333,-80.2708333,Coral Springs
1035,1971-10-13,34.1397222,-118.0344444,Arcadia
1036,1970-01-16,53.916667,-122.766667,Prince George
1037,1974-10-12,48.6011111,-93.4108333,International Falls
1038,2004-03-01,34.4269444,-77.5463889,Surf City
1039,1992-04-08,40.9444444,-74.0758333,Paramus
1040,2006-10-01,35.9938889,-78.8988889,Durham
1041,2012-05-29,44.925,-93.4625,Minnetonka
1042,2015-08-01,31.9491667,-98.7369444,unknown
1043,1977-11-18,39.6294444,-79.9561111,Morgantown
1044,1971-12-04,40.4405556,-79.9961111,Pittsburgh
1045,2013-06-28,47.168107,11.861812,Marktgemeinde Mayrhofen
1046,2004-12-24,12.879721,121.774017,Concepcion
1047,2006-08-24,41.4969444,-71.3677778,Jamestown
1048,1995-04-07,28.3858333,-80.7422222,Cocoa
1049,2006-07-15,39.7722222,-101.7994444,St. Francis
1050,1982-05-23,40.4166667,-86.8752778,Lafayette
1051,1990-05-31,46.216667,-63.483333,Victoria
1052,2014-05-13,47.6063889,-122.3308333,Seattle
1053,2007-08-26,40.7141667,-74.0063889,City of New York
1054,1973-12-10,41.6302778,-87.8538889,Orland Park
1055,2010-03-06,34.5294444,-90.5916667,Helena-West Helena
1056,1989-04-27,27.9011111,-81.5861111,Lake Wales
1057,2017-11-26,42.9977778,-84.1766667,Owosso
1058,1995-09-30,40.7719444,-80.7683333,Lisbon
1059,1984-05-02,39.8397222,-74.1905556,Lacey Township
1060,1986-11-25,42.9375,-70.8394444,Hampton
1061,2004-03-16,40.3236111,-75.0602778,Buckingham Township
1062,1985-02-24,44.2858333,-69.7913889,Hallowell
1063,1996-10-18,42.8666667,-106.3125,Casper
1064,2009-09-25,37.2152778,-93.2980556,Springfield
1065,1973-05-27,43.0116667,-88.2313889,Waukesha
1066,2017-07-19,40.706987,-75.306233,Lower Nazareth Township
1067,2012-03-07,45.583333,-72.0,Windsor
1068,1971-04-11,32.5230556,-92.6377778,Ruston
1069,2013-11-23,40.4394444,-84.0402778,Jackson Center
1070,1970-10-31,42.2916667,-85.5872222,Kalamazoo
1071,2006-03-27,26.7052778,-80.0366667,Palm Beach
1072,2012-10-08,34.1477778,-118.1436111,Pasadena
1073,1981-10-10,37.9886111,-84.4777778,Lexington
1074,2003-08-06,39.1752778,-84.2944444,Milford
1075,1976-03-31,47.2530556,-122.4430556,Tacoma
1076,1991-10-04,41.0180556,-75.9952778,unknown
1077,1978-11-26,36.0625,-94.1572222,Fayetteville
1078,1978-10-20,40.5866667,-122.3905556,Redding
1079,2016-12-27,48.0519444,-122.1758333,Marysville
1080,2017-08-16,41.4527778,-82.1825,Lorain
1081,2003-02-21,45.416667,-75.7,(Old) Ottawa
1082,1989-04-15,41.0988889,-81.6447222,unknown
1083,2006-03-19,32.9125,-96.6386111,Garland
1084,1978-12-18,26.092222,-98.277778,Reynosa
1085,1979-04-03,42.1013889,-72.5902778,Springfield
1086,1985-05-18,40.9502778,-72.8430556,Wading River
1087,1995-12-02,30.5402778,-88.6875,unknown
1088,1983-06-25,33.5205556,-86.8025,Birmingham
1089,1996-12-10,53.92766,-3.00585,Wyre
1090,1972-03-09,34.1722222,-118.3780556,Los Angeles
1091,1980-04-15,41.0127778,-81.6052778,Barberton
1092,1970-03-01,41.4994444,-81.6955556,Cleveland
1093,2011-06-30,35.9605556,-83.9208333,Knoxville
1094,1984-07-18,40.4172222,-79.8652778,Braddock Hills
1095,1986-11-13,33.3061111,-111.8405556,Chandler
1096,1997-03-25,42.3241667,-83.4002778,Westland
1097,2013-05-29,43.9013889,-70.4708333,Raymond
1098,1981-07-20,33.8358333,-79.0480556,Conway
1099,1990-02-10,39.6955556,-78.88,Mount Savage
1100,2013-09-04,36.663447,-87.47739,unknown
1101,1978-01-25,41.1238889,-100.765,North Platte
1102,2011-07-23,35.4244444,-84.4875,Englewood
1103,1980-09-18,42.8947222,-70.8716667,Seabrook
1104,2017-12-15,35.3627778,-84.2941667,Tellico Plains
1105,1989-01-30,36.0397222,-114.9811111,Henderson
1106,1993-08-04,44.5438889,-73.1483333,Colchester
1107,1973-03-25,41.1888889,-81.6363889,Bath Township
1108,2016-03-20,44.26,-72.5758333,Montpelier
1109,2009-05-11,70.416667,-148.916667,unknown
1110,1997-05-29,38.0608333,-97.9294444,Hutchinson
1111,2004-10-14,34.1513889,-89.6313889,Water Valley
1112,2005-10-02,40.220391,-74.012082,Asbury Park
1113,1998-05-27,36.1866667,-94.1286111,Springdale
1114,1977-05-12,40.8519444,-73.1544444,Smithtown
1115,1997-05-25,37.4852778,-122.2352778,Redwood City
1116,2007-06-10,37.0297222,-76.3455556,Hampton
1117,1982-10-22,36.7477778,-119.7713889,Fresno
1118,1970-07-15,29.5633333,-95.2858333,Pearland
1119,1996-10-04,40.0991667,-83.1141667,Dublin
1120,2000-12-16,27.9091667,-82.7875,Largo
1121,2008-12-05,44.925,-93.4625,Minnetonka
1122,1978-11-27,38.0280556,-121.8836111,Pittsburg
1123,1978-03-28,35.9552778,-96.0086111,Glenpool
1124,1979-12-24,56.5,-2.966667,Dundee
1125,1981-07-23,38.9805556,-76.3147222,Stevensville
1126,2016-05-14,31.4866667,-96.3072222,unknown
1127,1975-07-31,27.8961111,-81.8433333,Bartow
1128,2016-07-05,22.223467,-159.556834,unknown
1129,1975-09-14,35.9669444,-83.1877778,Newport
1130,1991-12-30,33.1191667,-117.0855556,Escondido
1131,1975-01-31,37.8036111,-109.1333333,unknown
1132,1981-09-17,33.7488889,-84.3880556,Atlanta
1133,1999-09-20,34.0469444,-116.58,unknown
1134,2004-04-29,39.4861111,-77.7,Keedysville
1135,1972-08-27,38.145876,-104.980582,unknown
1136,2000-05-26,36.3230556,-86.7133333,Goodlettsville
1137,2003-07-11,42.8352778,-89.0675,Edgerton
1138,2009-10-04,38.2322222,-90.5627778,Hillsboro
1139,1986-06-29,35.0455556,-85.3097222,Chattanooga
1140,1980-01-11,45.9,-82.25,Billings Township
1141,1998-11-20,42.57687,-71.833414,Fitchburg
1142,1980-07-28,38.224444,-76.753333,unknown
1143,2011-05-06,46.6022222,-120.5047222,Yakima
1144,1971-03-03,30.3863889,-84.7980556,unknown
1145,1972-11-10,43.9186111,-69.8016667,Woolwich
1146,1977-03-10,41.3541667,-71.9669444,Stonington
1147,1979-05-08,42.423857,-70.982599,Revere
1148,1979-03-12,39.6619444,-75.5666667,New Castle
1149,1991-01-30,33.144291,-117.095556,Escondido
1150,2007-08-18,44.765,-69.7197222,Skowhegan
1151,1970-11-10,42.3313889,-83.0458333,Detroit
1152,1975-05-19,35.6527778,-97.4777778,Edmond
1153,1977-05-23,42.5466667,-83.2113889,Birmingham
1154,1985-04-01,32.2216667,-110.9258333,Tucson
1155,2014-07-11,38.6272222,-90.1977778,Saint Louis
1156,2018-02-07,41.8994444,-87.9402778,Elmhurst
1157,2011-07-12,38.6272222,-90.1977778,Saint Louis
1158,1970-08-14,35.8825,-80.0822222,Thomasville
1159,1975-03-12,34.6086111,-98.39,Lawton
1160,2001-04-09,28.1138889,-81.6180556,Haines City
1161,1978-01-28,36.1658333,-86.7844444,Nashville-Davidson
1162,2007-10-18,35.2605556,-97.1194444,Pink
1163,1979-02-09,45.7811111,-122.5322222,Battle Ground
1164,1997-09-22,58.3019444,-134.4197222,Juneau
1165,2013-10-29,13.727896,100.524123,กรุงเทพมหานคร
1166,1988-05-09,47.2530556,-122.4430556,Tacoma
1167,2007-06-22,51.514125,-0.093689,City of London
1168,1990-07-21,38.80261,-116.419389,unknown
1169,1986-05-17,28.6608333,-81.3658333,unknown
1170,2001-11-24,45.404236,-74.03796,Vaudreuil-Dorion
1171,2008-11-28,37.0297222,-76.3455556,Hampton
1172,2013-09-01,37.7397222,-121.4241667,Tracy
1173,2004-04-25,39.9625,-76.7280556,York
1174,1970-08-31,44.8341667,-87.3769444,Sturgeon Bay
1175,2001-04-23,52.355518,-1.17432,unknown
1176,2000-02-27,40.7280556,-74.0780556,Jersey City
1177,1992-04-03,36.9741667,-122.0297222,Santa Cruz
1178,1998-10-22,61.2180556,-149.9002778,Anchorage
1179,2009-08-20,30.2669444,-97.7427778,Austin
1180,1990-11-09,33.24056,-109.283153,unknown
1181,1989-10-07,45.3,-122.7725,Wilsonville
1182,2009-02-14,30.6941667,-88.0430556,Mobile
1183,1983-03-31,42.8238889,-72.1816667,Troy
1184,2018-04-30,-27.116667,31.2,Nhlangano
1185,2010-03-23,34.4725,-81.8808333,Clinton
1186,2016-07-20,37.2152778,-93.2980556,Springfield
1187,1978-02-04,38.9516667,-92.3338889,Columbia
1188,2013-12-06,38.8338889,-104.8208333,Colorado Springs
1189,1974-07-01,35.8422222,-92.4569444,unknown
1190,1998-08-17,41.3325,-73.2077778,Monroe
1191,1995-03-22,39.7944444,-87.3958333,Highland
1192,2002-10-27,32.5447222,-94.3672222,Marshall
1193,1972-05-02,37.6922222,-97.3372222,Wichita
1194,2015-04-05,26.2708333,-80.2708333,Coral Springs
1195,1979-07-15,38.9555556,-90.1866667,Godfrey
1196,1975-04-10,36.6858333,-77.5427778,Emporia
1197,1972-07-17,39.9611111,-82.9988889,Columbus
1198,1982-04-12,39.1752778,-84.2944444,Milford
1199,1994-07-22,38.8158333,-76.75,Upper Marlboro
1200,1996-10-04,39.8366667,-105.0366667,Westminster
1201,1997-02-19,40.4405556,-79.9961111,Pittsburgh
1202,2006-04-24,27.4463889,-80.3258333,Fort Pierce
1203,1988-05-11,39.2966667,-75.1769444,Downe Township
1204,2008-09-01,-0.95,100.353056,Padang
1205,1970-10-22,19.432608,-99.133208,Ciudad de México
1206,2018-11-09,32.525,-93.75,Shreveport
1207,1977-03-21,30.4505556,-91.1544444,Baton Rouge
1208,2013-06-26,37.6391667,-120.9958333,Modesto
1209,2005-10-18,43.666667,-79.416667,Old Toronto
1210,1981-05-03,36.8255556,-79.3983333,Chatham
1211,2015-10-01,38.6338889,-95.8255556,Osage City
1212,1997-04-30,40.7141667,-74.0063889,City of New York
1213,1983-11-01,34.2072222,-84.1402778,Cumming
1214,2011-07-11,31.3111111,-92.445,Alexandria
1215,1973-11-29,45.1077778,-93.2377778,Fridley
1216,2009-01-03,42.5277778,-70.9291667,Peabody
1217,1995-06-17,38.7713889,-90.3708333,Hazelwood
1218,1990-12-20,27.0994444,-82.4544444,Venice
1219,1976-06-21,48.4213889,-122.3327778,Mount Vernon
1220,2001-04-22,34.3266667,-93.5505556,Glenwood
1221,2015-07-04,38.9413889,-119.7486111,Gardnerville
1222,2006-06-29,30.4055556,-86.6188889,Fort Walton Beach
1223,2018-07-11,31.315,-85.8552778,Enterprise
1224,1985-07-20,35.5916667,-86.3541667,Bell Buckle
1225,2005-04-26,34.6991667,-86.7483333,Madison
1226,1997-04-04,32.7833333,-96.8,Dallas
1227,1981-01-09,41.5875,-109.2022222,Rock Springs
1228,1979-09-07,40.9730556,-117.7347222,Winnemucca
1229,1981-12-09,39.9611111,-82.9988889,Columbus
1230,1992-01-08,39.9522222,-75.1641667,Philadelphia
1231,1980-03-12,34.005,-118.8091667,Malibu
1232,1971-09-14,43.544596,-96.731103,Sioux Falls
1233,1985-06-20,39.1625,-76.625,Glen Burnie
1234,2005-05-24,40.4775,-104.9008333,Windsor
1235,1988-01-11,27.4986111,-82.575,Bradenton
1236,1972-01-20,29.4238889,-98.4933333,San Antonio
1237,2005-02-03,42.5047222,-71.1961111,Burlington
1238,1978-07-27,39.7972222,-84.3113889,Trotwood
1239,1985-07-05,45.5236111,-122.675,Portland
1240,1988-04-09,32.7025,-103.1355556,Hobbs
1241,1992-09-04,37.585,-79.0516667,Amherst
1242,1993-02-02,38.9380556,-99.5602778,Ellis
1243,1981-07-14,31.7605556,-93.0861111,Natchitoches
1244,1995-07-25,39.0991667,-76.8486111,Laurel
1245,1990-06-04,18.466667,-77.916667,Montego Bay
1246,1998-07-12,41.6302778,-87.8538889,Orland Park
1247,1979-10-17,45.5236111,-122.675,Portland
1248,2008-03-17,53.366667,-1.5,Sheffield
1249,2015-01-24,29.4238889,-98.4933333,San Antonio
1250,1978-04-09,32.2216667,-110.9258333,Tucson
1251,2003-08-30,33.9163889,-118.3516667,Hawthorne
1252,1994-07-07,45.442254,16.276859,Petrinja
1253,1970-02-09,37.0986,-93.8185,Mount Vernon
1254,1985-07-28,42.846108,-71.112674,Plastow
1255,1976-12-16,38.3283333,-94.9916667,Parker
1256,2014-07-31,40.7141667,-74.0063889,City of New York
1257,1978-07-11,51.514125,-0.093689,City of London
1258,2012-07-28,44.0522222,-123.0855556,Eugene
1259,1983-08-10,40.7966667,-74.4819444,Morristown
1260,2009-10-30,33.894339,-78.426672,Ocean Isle Beach
1261,1982-02-20,42.108914,-88.297581,Carpentersville
1262,1987-07-11,41.2586111,-95.9375,Omaha
1263,1982-12-29,30.3319444,-81.6558333,Jacksonville
1264,1970-03-13,23.810332,90.412518,ঢাকা
1265,2012-11-08,34.7863889,-76.8594444,Newport
1266,1999-08-27,42.765189,-76.872096,Town of Varick
1267,1980-03-16,33.1383333,-96.1105556,Greenville
1268,2014-01-16,33.475,-80.4866667,Santee
1269,1998-11-21,34.0636111,-83.1255556,Comer
1270,1986-04-13,37.05106,-122.014684,Scotts Valley
1271,1991-09-06,47.3811111,-122.2336111,Kent
1272,2018-01-17,35.2269444,-80.8433333,Charlotte
1273,1978-04-03,35.0455556,-85.3097222,Chattanooga
1274,1996-01-15,37.1147222,-81.5197222,Tazewell
1275,1971-12-04,47.44732,-122.45985,Vashon
1276,2001-10-16,32.7152778,-117.1563889,San Diego
1277,1972-03-10,38.1394444,-90.555,De Soto
1278,2012-06-10,33.5205556,-86.8025,Birmingham
1279,2009-06-05,43.2436111,-97.2791667,unknown
1280,1998-09-11,32.6208333,-83.6,unknown
1281,2007-11-17,47.5675,-122.6313889,Bremerton
1282,1999-11-30,44.2519444,-85.4011111,Cadillac
1283,2011-08-20,34.0852778,-117.96,Baldwin Park
1284,1983-08-06,41.5761111,-105.6947222,unknown
1285,1982-01-21,42.4975,-94.1677778,Fort Dodge
1286,2019-01-28,32.3511111,-95.3008333,Tyler
1287,1979-12-05,41.0144444,-75.6013889,Kidder Township
1288,1974-03-17,39.7391667,-104.9841667,Denver
1289,1992-05-27,35.3786111,-81.3791667,Cherryville
1290,2004-07-06,29.6183333,-95.5375,Missouri City
1291,1972-09-10,39.0275,-82.0338889,Pomeroy
1292,2015-11-02,32.4638889,-86.4597222,Prattville
1293,1986-05-15,-21.846665,19.188005,unknown
1294,2000-05-22,35.6969444,-82.5608333,Weaverville
1295,2008-07-16,34.6980556,-118.1358333,Lancaster
1296,2018-05-20,46.4547222,-90.1708333,Ironwood
1297,2008-07-23,43.7066667,-73.0286111,Pittsford
1298,1970-10-19,33.6888889,-86.6833333,Pinson
1299,1996-03-28,25.7738889,-80.1938889,Miami
1300,2009-01-26,33.8816667,-118.1161111,Bellflower
1301,1988-12-19,32.6030556,-98.215,Santo
1302,1973-10-13,37.2152778,-93.2980556,Springfield
1303,2013-02-12,46.5,-80.966667,Greater Sudbury
1304,1986-09-18,27.6383333,-80.3975,Vero Beach
1305,2011-06-29,33.6669444,-93.5913889,Hope
1306,1972-05-07,37.1533333,-98.0308333,Anthony
1307,1992-01-09,52.466667,-1.916667,Birmingham
1308,2017-03-11,26.4611111,-80.0730556,Delray Beach
1309,2001-04-12,34.51342,-110.083226,Snowflake
1310,1985-05-04,38.2541667,-85.7594444,Louisville
1311,2010-03-21,38.6244444,-76.9394444,unknown
1312,1996-04-02,40.1261111,-82.9291667,Westerville
1313,2011-05-22,33.3527778,-111.7883333,Gilbert
1314,1988-06-25,44.4202778,-83.3308333,Oscoda
1315,1991-09-17,41.5291667,-120.1722222,Cedarville
1316,1980-02-06,39.0955556,-121.5511111,Olivehurst
1317,2013-02-17,37.289655,-79.852972,unknown
1318,1983-04-04,33.6888889,-78.8869444,Myrtle Beach
1319,2002-04-10,36.8527778,-75.9783333,Virginia Beach
1320,2015-11-11,34.9247222,-81.0252778,Rock Hill
1321,2007-08-17,34.5794444,-118.1155556,Palmdale
1322,1977-09-18,40.1933333,-85.3863889,Muncie
1323,2018-09-25,35.3186111,-82.4611111,Hendersonville
1324,1987-07-14,38.8338889,-104.8208333,Colorado Springs
1325,1979-11-16,41.1016667,-80.7647222,Austintown
1326,1986-02-20,31.7586111,-106.4863889,El Paso
1327,1983-04-05,38.7838889,-90.4811111,Saint Charles
1328,1993-03-16,40.0447222,-75.4391667,Easttown Township
1329,1978-03-30,38.9227778,-76.6286111,unknown
1330,2016-05-18,41.6977778,-72.7241667,Newington
1331,1992-09-20,35.7847222,-89.1172222,Alamo
1332,1977-01-13,33.4483333,-112.0733333,Phoenix
1333,1987-03-04,35.16545,-114.556774,Bullhead City
1334,2012-10-07,40.3336111,-75.6377778,Boyertown
1335,2000-08-03,39.9008333,-76.6061111,Red Lion
1336,2017-04-05,43.2363889,-120.6358333,unknown
1337,2014-09-03,36.1658333,-86.7844444,Nashville-Davidson
1338,2016-12-02,47.3069444,-92.6030556,Kelsey
1339,2007-04-24,33.4352778,-112.3575,Goodyear
1340,2002-11-03,37.4419444,-122.1419444,Palo Alto
1341,2017-07-10,37.3688889,-122.0352778,Sunnyvale
1342,1992-01-15,37.5686111,-84.2963889,Berea
1343,1991-09-28,43.666667,-79.416667,Old Toronto
1344,1970-09-11,33.4483333,-112.0733333,Phoenix
1345,1989-01-04,40.9477778,-90.3711111,Galesburg
1346,2012-04-16,43.5697222,-87.8233333,Cedar Grove
1347,2008-07-21,47.5002778,-111.3,Great Falls
1348,1992-05-03,35.615,-87.0352778,Columbia
1349,2005-08-17,32.3880556,-98.9788889,Cisco
1350,2010-10-15,36.0997222,-80.2444444,Winston-Salem
1351,1995-08-24,35.2922222,-81.5358333,Shelby
1352,1977-11-26,38.3641667,-122.5230556,unknown
1353,1984-11-25,42.9386111,-74.1886111,City of Amsterdam
1354,2009-02-18,33.9561111,-83.9880556,Lawrenceville
1355,1971-07-12,45.3566667,-122.8388889,Sherwood
1356,2006-10-28,39.1141667,-94.6272222,Kansas City
1357,1994-03-01,41.85,-87.65,Chicago
1358,1982-02-15,29.9744444,-92.1341667,Abbeville
1359,1993-10-09,36.3275,-119.6447222,Hanford
1360,1992-08-03,42.9638889,-78.7380556,Buffalo
1361,2000-02-09,32.9341667,-97.0777778,Grapevine
1362,2016-01-19,33.2,-117.2416667,Vista
1363,2013-03-07,47.4830556,-122.2158333,Renton
1364,1986-12-22,30.4211111,-87.2169444,Pensacola
1365,2006-09-30,47.6741667,-122.1202778,Redmond
1366,1975-07-04,39.0638889,-108.55,Grand Junction
1367,1980-01-27,38.8697222,-75.4233333,unknown
1368,2008-12-07,45.5236111,-122.675,Portland
1369,1989-01-24,38.2544444,-104.6086111,Pueblo
1370,2001-11-26,29.7630556,-95.3630556,Houston
1371,1984-04-03,29.7630556,-95.3630556,Houston
1372,1990-03-12,39.1286111,-79.465,Davis
1373,2017-10-29,26.6402778,-81.8725,Fort Myers
1374,2009-12-11,41.447569,-71.524667,South Kingstown
1375,1976-04-25,39.1619444,-84.4569444,Norwood
1376,1975-11-30,40.691613,-112.00105,West Valley City
1377,1977-02-18,40.691613,-112.00105,West Valley City
1378,1988-04-07,38.9822222,-94.6705556,Overland Park
1379,2006-03-09,38.9716667,-95.235,Lawrence
1380,2000-10-10,32.9536111,-96.89,Carrollton
1381,1979-09-19,33.3941667,-104.5225,Roswell
1382,2012-03-14,28.6802778,-81.5097222,Apopka
1383,1997-06-19,39.2902778,-76.6125,Baltimore
1384,1995-05-31,49.815273,6.129583,Cruchten
1385,2011-03-26,47.5002778,-111.3,Great Falls
1386,1970-05-11,41.2975,-82.6055556,Milan
1387,1988-08-04,44.953022,-92.995215,Maplewood
1388,2012-06-24,38.8966667,-121.0758333,Auburn
1389,2004-01-26,41.7355556,-111.8336111,Logan
1390,1988-09-03,41.0086111,-91.9625,Fairfield
1391,1980-10-04,52.92253,-1.474619,Derby
1392,1973-06-06,38.005,-121.8047222,Antioch
1393,2010-05-21,33.6797222,-113.9438889,unknown
1394,1995-06-12,34.1952778,-79.7627778,Florence
1395,1992-01-27,42.6525,-73.7566667,City of Albany
1396,1973-12-19,38.9125,-75.4283333,Milford
1397,1982-06-11,33.6113889,-112.4263889,Surprise
1398,1971-06-14,32.7563889,-99.8958333,Anson
1399,1977-01-27,32.7833333,-96.8,Dallas
1400,2011-05-01,36.175,-115.1363889,Las Vegas
1401,1982-07-10,37.1041667,-113.5833333,St. George
1402,1970-09-09,39.0061111,-77.4288889,Sterling
1403,1999-02-18,40.7608333,-111.8902778,Salt Lake City
1404,1980-04-12,43.55,-80.25,Guelph
1405,1985-08-29,39.4013889,-76.6022222,Towson
1406,1978-06-28,39.427825,-86.428328,Martinsville
1407,2017-03-06,45.702647,-82.037176,Central Manitoulin
1408,1992-07-16,40.0788889,-93.6163889,Trenton
1409,1992-05-18,38.8047222,-77.0472222,Alexandria
1410,2008-06-29,35.8455556,-86.3902778,Murfreesboro
1411,2006-04-16,34.4838889,-114.3216667,Lake Havasu City
1412,2012-08-17,39.9936111,-105.0891667,Lafayette
1413,1989-02-12,44.7677778,-93.2775,Burnsville
1414,1972-07-08,41.140039,-79.679032,Foxburg
1415,1993-03-04,37.5483333,-121.9875,Fremont
1416,1994-07-14,28.5380556,-81.3794444,Orlando
1417,2011-02-10,39.0275,-82.0338889,Pomeroy
1418,2008-04-18,38.9822222,-94.6705556,Overland Park
1419,2000-05-27,44.2480556,-99.4527778,unknown
1420,1994-06-30,42.2711111,-89.0938889,Rockford
1421,1977-11-01,43.2830556,-97.0888889,Hurley
1422,2009-05-28,29.1869444,-82.1402778,Ocala
1423,1975-04-09,41.7,-71.6833333,Coventry
1424,1996-05-23,33.8941667,-78.4269444,Ocean Isle Beach
1425,1971-04-04,43.7647222,-95.8269444,Wilmont
1426,2016-07-28,33.4483333,-112.0733333,Phoenix
1427,2016-06-25,35.0844444,-106.6505556,Albuquerque
1428,1970-05-29,38.8461111,-77.3066667,Fairfax
1429,2005-01-02,42.5619444,-73.1633333,Cheshire
1430,2018-08-16,31.3269444,-89.2902778,Hattiesburg
1431,1995-06-20,29.8236111,-90.475,unknown
1432,1996-05-06,33.7938889,-84.6605556,Lithia Springs
1433,2014-01-30,40.115,-111.6541667,Spanish Fork
1434,1987-02-15,32.7252778,-114.6236111,Yuma
1435,1988-04-28,33.4483333,-112.0733333,Phoenix
1436,1973-05-19,26.6583333,-80.2416667,Wellington
1437,1979-11-05,37.4716667,-121.1286111,Patterson
1438,1976-02-07,54.4,-126.65,Houston
1439,1985-03-04,43.9036111,-99.8613889,Kennebec
1440,2006-12-02,32.7355556,-97.1077778,Arlington
1441,2003-01-30,38.7522222,-121.2869444,Roseville
1442,2011-10-20,40.0805556,-80.9002778,St. Clairsville
1443,2001-04-05,32.3475,-97.3863889,Cleburne
1444,1972-08-14,31.195001,-97.741314,unknown
1445,2007-01-08,38.0291667,-78.4769444,Charlottesville
1446,1996-04-07,28.9002778,-81.2638889,Deltona
1447,2011-04-16,33.4483333,-112.0733333,Phoenix
1448,1985-12-11,37.3394444,-121.8938889,San Jose
1449,1986-08-21,43.7486111,-87.9769444,Plymouth
1450,2018-04-27,33.0888889,-96.8861111,The Colony
1451,1999-08-26,32.7938889,-79.8627778,Mount Pleasant
1452,1991-04-08,35.7452778,-89.5297222,Ripley
1453,1995-04-08,42.6191667,-113.6763889,Rupert
1454,2019-04-24,55.833333,-4.25,Glasgow
1455,1997-11-13,39.2797222,-89.8816667,Carlinville
1456,2016-05-19,36.2694444,-95.8544444,Owasso
1457,2003-06-26,40.7141667,-74.0063889,City of New York
1458,2005-02-20,21.3069444,-157.8583333,Honolulu
1459,1991-11-18,35.5363889,-78.2847222,Selma
1460,1985-09-07,28.0391667,-81.95,Lakeland
1461,1977-09-04,40.7988889,-81.3786111,Canton
1462,1970-05-04,29.1869444,-82.1402778,Ocala
1463,1974-12-19,32.9808333,-80.0327778,Goose Creek
1464,2001-06-23,31.7586111,-106.4863889,El Paso
1465,1990-11-03,39.4561111,-77.9641667,Martinsburg
1466,1986-05-12,-33.924868,18.424055,Cape Town
1467,1970-08-28,37.6688889,-122.0797222,Hayward
1468,1984-07-08,47.4066667,-122.0375,Maple Valley
1469,2018-07-27,38.3225,-75.2180556,Berlin
1470,2005-12-01,45.6388889,-122.6602778,Vancouver
1471,2018-03-24,40.5583333,-85.6591667,Marion
1472,2011-10-10,52.25,-0.883333,Northampton
1473,1995-02-10,37.4536111,-90.7947222,unknown
1474,2016-07-18,37.4536111,-90.7947222,unknown
1475,2011-09-13,25.901107,-81.321402,unknown
1476,1970-06-27,42.5311111,-88.2480556,Twin Lakes
1477,1991-01-26,25.7738889,-80.1938889,Miami
1478,1990-05-13,34.3875,-83.6663889,Lula
1479,1984-07-13,33.7125,-115.4013889,unknown
1480,1991-07-24,40.6083333,-75.4905556,Allentown
1481,1978-03-23,35.39,-120.6080556,unknown
1482,1979-01-08,38.8338889,-104.8208333,Colorado Springs
1483,1990-10-24,34.5033333,-82.6502778,Anderson
1484,1992-06-18,38.2008333,-77.5894444,Spotsylvania Courthouse
1485,2007-08-10,41.3305556,-74.1872222,Village of Monroe
1486,1977-11-06,27.9655556,-82.8002778,Clearwater
1487,2013-03-15,44.558803,-72.577841,Morrisville
1488,2012-06-28,32.2216667,-110.9258333,Tucson
1489,2007-05-01,41.375,-74.6930556,City of Port Jervis
1490,2012-04-12,33.9375,-117.2297222,Moreno Valley
1491,1991-07-17,19.211766,-155.523258,unknown
1492,2007-08-27,40.6083333,-75.4905556,Allentown
1493,1991-05-06,47.322516,-122.320609,Federal Way
1494,1992-09-08,41.8238889,-71.4133333,Providence
1495,1973-08-24,53.8,-1.583333,Leeds
1496,2001-09-10,41.2888889,-72.6822222,Guilford
1497,1999-09-07,33.8491667,-118.3875,Redondo Beach
1498,1997-11-08,41.9083333,-71.3625,Attleboro
1499,2005-04-23,38.3686111,-93.7780556,Clinton
1500,1990-09-27,44.7677778,-93.2775,Burnsville
1501,1970-06-03,37.566535,126.977969,서울
1502,1989-05-26,36.595,-82.1888889,Bristol
1503,1982-10-20,41.001764,-73.665683,Village of Port Chester
1504,1977-05-20,37.2255556,-107.5975,Bayfield
1505,1996-02-10,38.6158333,-76.6133333,unknown
1506,2000-10-26,35.6869444,-105.9372222,Santa Fe
1507,1987-11-05,-23.697479,133.883621,Alice Springs
1508,2015-12-05,35.2225,-97.4391667,Norman
1509,1994-04-27,36.3125,-95.6158333,Claremore
1510,2017-12-27,33.66,-86.8127778,Gardendale
1511,1998-11-29,39.0997222,-94.5783333,Downtown Kansas City
1512,1975-06-26,39.0875,-81.9227778,Chester
1513,2015-01-09,33.234283,-97.586139,Decatur
1514,1975-03-13,38.7744444,-75.1397222,Lewes
1515,2016-07-06,42.499994,-96.400307,Sioux City
1516,1974-12-02,42.1694444,-75.1297222,Village of Walton
1517,2016-01-02,40.7311111,-122.9408333,Weaverville
1518,2008-09-01,45.318063,-85.2584,Charlevoix
1519,1982-01-07,42.3708333,-71.1833333,Watertown
1520,1989-03-25,36.4497222,-76.0158333,Currituck
1521,1995-09-21,34.4233333,-118.4711111,Santa Clarita
1522,1974-06-06,42.087713,-88.060167,Palatine
1523,2001-06-06,42.2791667,-71.4166667,Framingham
1524,1987-09-16,31.3075,-96.6316667,Mexia
1525,2010-03-23,39.1961111,-121.19,Penn Valley
1526,2017-10-30,33.6305556,-112.3325,Surprise
1527,2000-07-29,33.8358333,-118.3397222,Torrance
1528,2006-05-09,43.2925,-85.0813889,Stanton
1529,2018-01-16,40.0711111,-74.8652778,Burlington City
1530,2001-08-31,16.054407,108.202167,Thành phố Đà Nẵng
1531,2004-10-08,38.5816667,-121.4933333,Sacramento
1532,1992-12-21,47.6063889,-122.3308333,Seattle
1533,1996-11-12,36.3133333,-82.3536111,Johnson City
1534,2004-08-06,36.3133333,-82.3536111,Johnson City
1535,2016-05-07,40.1933333,-85.3863889,Muncie
1536,2018-12-31,22.890533,-109.916737,Cabo San Lucas
1537,2011-02-16,37.8402778,-85.9491667,Radcliff
1538,1978-07-04,35.0455556,-85.3097222,Chattanooga
1539,1997-02-02,36.2166667,-81.6747222,Boone
1540,2010-01-29,30.3933333,-86.4958333,Destin
1541,2002-10-05,34.2283333,-118.5358333,Los Angeles
1542,2004-04-18,45.0244444,-123.9452778,unknown
1543,1986-10-17,42.3583333,-71.0602778,Boston
1544,1973-07-07,38.645,-82.8488889,unknown
1545,1994-04-06,64.0377778,-145.7322222,Delta Junction
1546,1972-10-02,41.1466667,-73.4952778,New Canaan
1547,2017-10-03,27.8002778,-97.3961111,Corpus Christi
1548,1990-07-10,34.54,-112.4677778,Prescott
1549,1987-10-01,35.2163889,-109.3330556,Sanders
1550,2011-06-15,35.2980556,-81.0161111,Mount Holly
1551,1983-05-22,33.8491667,-118.3875,Redondo Beach
1552,1996-04-12,39.0175,-122.0566667,unknown
1553,1970-01-14,43.6122222,-116.3905556,Meridian
1554,2012-11-17,31.7244444,-96.165,Fairfield
1555,1981-09-20,41.2230556,-111.9730556,Ogden
1556,1983-06-21,51.514125,-0.093689,City of London
1557,2008-05-14,42.731893,-83.072964,Washington Township
1558,1985-09-10,34.4211111,-84.1191667,Dawsonville
1559,1974-09-27,34.8833333,-82.7075,Pickens
1560,2009-03-13,44.8113889,-91.4983333,Eau Claire
1561,1994-09-28,28.2713889,-82.7197222,Port Richey
1562,1975-12-18,30.2669444,-97.7427778,Austin
1563,1995-05-27,38.6411111,-83.7444444,Maysville
1564,1988-10-04,-20.744222,116.804227,unknown
1565,2011-02-15,42.3041667,-76.1869444,Town of Berkshire
1566,2001-09-02,42.0527778,-124.2827778,Brookings
1567,1985-05-22,48.2025,-116.5466667,unknown
1568,2009-05-14,33.8313889,-118.2811111,Carson
1569,1991-11-08,43.166667,-79.233333,St. Catharines
1570,2013-09-07,40.6861111,-75.4972222,Northampton
1571,1983-05-01,45.416667,-75.7,(Old) Ottawa
1572,1972-11-18,35.2783333,-93.1336111,Russellville
1573,1982-02-19,33.4483333,-112.0733333,Phoenix
1574,2010-02-22,52.766667,-1.933333,Cannock Chase
1575,1995-08-21,30.2655556,-94.1994444,Lumberton
1576,1988-03-05,35.2269444,-80.8433333,Charlotte
1577,2007-07-24,30.3319444,-81.6558333,Jacksonville
1578,1984-10-01,47.3483333,-122.1136111,Kent
1579,1978-04-10,41.1133333,-74.2458333,Ringwood
1580,2006-10-04,40.1525,-106.9080556,Yampa
1581,1995-05-18,33.8816667,-118.1161111,Bellflower
1582,1989-10-01,38.8338889,-104.8208333,Colorado Springs
1583,1975-03-02,40.1536111,-82.6852778,Johnstown
1584,2013-02-06,39.7391667,-104.9841667,Denver
1585,1998-05-19,34.1808333,-118.3080556,Burbank
1586,1995-07-25,37.8716667,-122.2716667,Berkeley
1587,2002-01-13,40.3044444,-82.6963889,Centerburg
1588,1981-03-14,21.161908,-86.851528,Cancún
1589,1974-05-31,30.4111111,-88.8277778,Ocean Springs
1590,2010-09-12,34.4208333,-119.6972222,Santa Barbara
1591,2017-12-09,-36.84846,174.763332,Auckland
1592,1990-09-29,41.7561111,-124.2005556,Crescent City
1593,1973-03-27,44.32,-91.9147222,Alma
1594,1995-02-27,37.6791667,-95.4569444,Chanute
1595,1982-03-16,42.9697222,-77.2305556,Village of Manchester
1596,2015-12-12,32.7833333,-96.8,Dallas
1597,1997-08-30,37.2844444,-109.5511111,Bluff
1598,1996-12-11,33.317842,-117.320512,Marine Corps Base Camp Pendleton
1599,1980-01-24,-25.274398,133.775136,unknown
1600,1977-07-09,46.9105556,-98.7080556,Jamestown
1601,1989-02-07,35.2333333,-106.6638889,Rio Rancho
1602,1981-07-30,41.82052,-71.512617,Johnston
1603,2010-03-03,39.2902778,-76.6125,Baltimore
1604,1998-08-25,38.6941667,-75.7725,Federalsburg
1605,2002-10-20,34.645265,-118.205353,Lancaster
1606,1987-04-08,37.9872222,-122.5877778,Fairfax
1607,1985-11-06,40.5775,-85.8733333,Converse
1608,1997-09-18,32.346612,-86.167221,Montgomery
1609,1979-10-11,36.7983333,-81.6825,Chilhowie
1610,2018-08-30,32.7355556,-97.1077778,Arlington
1611,2012-01-05,20.9083333,-156.2275,unknown
1612,2008-06-09,38.7058333,-87.76,Bridgeport
1613,2013-02-26,38.8597222,-104.9166667,Manitou Springs
1614,2018-01-14,47.9130556,-122.0969444,Snohomish
1615,2013-06-25,43.012165,-88.021633,West Allis
1616,2005-12-10,35.5066667,-97.7622222,Yukon
1617,2005-12-31,48.55,-109.6833333,Havre
1618,1991-02-09,37.216678,-93.245798,Springfield
1619,2008-06-05,42.2780556,-74.9163889,Village of Delhi
1620,1997-12-11,47.626208,-122.521245,Bainbridge Island
1621,2011-11-21,41.35,-72.0788889,Groton
1622,2017-06-29,39.11376,-76.726777,Odenton
1623,1995-09-27,34.5008333,-117.185,Apple Valley
1624,2009-12-12,33.2613889,-97.2377778,Krum
1625,2005-05-14,41.2427778,-73.2011111,Trumbull
1626,1990-03-05,33.485664,-85.80913,unknown
1627,1991-09-25,35.6266667,-120.69,Paso Robles
1628,1972-01-26,29.665784,-95.019373,La Porte
1629,1994-10-12,40.4405556,-79.9961111,Pittsburgh
1630,1998-02-19,40.3611111,-83.7597222,Bellefontaine
1631,2009-01-26,21.3069444,-157.8583333,Honolulu
1632,2017-10-28,42.4055556,-83.0969444,Highland Park
1633,1990-03-30,44.6366667,-123.1047222,Albany
1634,1977-12-01,32.7666667,-96.5988889,Mesquite
1635,1998-12-07,33.7358333,-118.2913889,Los Angeles
1636,1983-02-04,36.2166667,-81.6747222,Boone
1637,1998-10-12,37.3394444,-121.8938889,San Jose
1638,1983-05-06,37.2294444,-80.4141667,Blacksburg
1639,1977-08-14,53.5,-2.216667,Manchester
1640,2001-11-16,53.997945,-6.405957,unknown
1641,1997-11-11,37.8402778,-85.9491667,Radcliff
1642,1978-04-26,36.8527778,-75.9783333,Virginia Beach
1643,2013-10-10,34.1780556,-82.3791667,Abbeville
1644,1991-08-11,32.8386111,-86.6294444,Clanton
1645,2012-02-22,34.0522222,-118.2427778,Los Angeles
1646,2010-04-30,32.7252778,-114.6236111,Yuma
1647,2000-03-17,25.9869444,-80.2325,Miramar
1648,2016-06-23,32.2047222,-95.8552778,Athens
1649,1994-09-23,39.2738889,-81.5730556,Belpre
1650,1978-07-15,32.8405556,-83.6325,Macon
1651,1990-12-18,39.1927778,-76.7244444,Hanover
1652,2009-08-23,28.0891667,-80.5658333,Indialantic
1653,1994-11-13,38.005,-121.8047222,Antioch
1654,1979-10-05,53.533333,-0.05,Humberston
1655,2000-10-01,33.7488889,-84.3880556,Atlanta
1656,1976-09-28,36.1155556,-97.0580556,Stillwater
1657,2009-07-17,26.2030556,-98.2297222,McAllen
1658,2010-03-17,53.41291,-8.24389,unknown
1659,2007-03-12,51.396531,0.177326,Swanley
1660,1994-08-22,41.6713889,-89.9361111,Prophetstown
1661,2016-02-04,37.7780556,-81.1883333,Beckley
1662,2006-03-18,41.0602778,-111.9702778,Layton
1663,1985-05-14,41.85,-87.65,Chicago
1664,2010-03-17,51.514125,-0.093689,City of London
1665,2011-10-22,35.6125,-77.3666667,Greenville
1666,2017-08-28,41.5119444,-87.9655556,New Lenox
1667,1989-07-04,34.1722222,-118.3780556,Los Angeles
1668,1978-09-20,47.7558333,-122.3402778,Shoreline
1669,2007-11-02,40.8002778,-72.7902778,Center Moriches
1670,1972-07-11,41.699096,-70.320911,Barnstable
1671,1970-10-23,47.6063889,-122.3308333,Seattle
1672,1996-06-10,44.383333,-79.7,Barrie
1673,2005-01-14,43.2122222,-77.4302778,Village of Webster
1674,1995-12-15,29.2672222,-97.7641667,Nixon
1675,2016-04-11,26.7052778,-80.0366667,Palm Beach
1676,2012-04-18,42.983333,-79.25,Welland
1677,2019-03-04,39.177404,-76.668392,unknown
1678,1976-10-30,39.9669444,-74.9430556,Moorestown Township
1679,1981-10-28,44.715,-67.4619444,Machias
1680,1995-09-28,35.2225,-97.4391667,Norman
1681,2010-04-27,46.8883333,-122.6872222,Rainier
1682,2013-12-21,42.765189,-76.872096,Town of Varick
1683,1992-07-10,27.9011111,-81.5861111,Lake Wales
1684,1997-07-25,35.0536111,-94.6233333,Poteau
1685,1976-01-14,44.9444444,-93.0930556,Saint Paul
1686,2013-03-14,53.916667,-122.766667,Prince George
1687,1973-10-01,40.7608333,-111.8902778,Salt Lake City
1688,2013-07-14,41.3461111,-73.0794444,Ansonia
1689,1981-05-13,34.0775,-117.6888889,Montclair
1690,2014-12-01,38.105,-85.7588889,Louisville
1691,1981-04-23,26.3394444,-81.7788889,Bonita Springs
1692,2019-03-14,41.4813889,-73.2136111,Southbury
1693,2001-06-17,34.035,-77.8938889,Carolina Beach
1694,2002-07-29,47.2530556,-122.4430556,Tacoma
1695,2013-10-21,40.3977778,-105.0744444,Loveland
1696,1990-06-25,28.5380556,-81.3794444,Orlando
1697,1998-09-08,41.0813889,-81.5191667,Akron
1698,2012-10-14,29.2855556,-81.0561111,Ormond Beach
1699,1970-01-14,40.7966667,-81.5216667,Massillon
1700,1991-12-14,31.9491667,-98.7369444,unknown
1701,1986-09-03,42.3313889,-83.0458333,Detroit
1702,2015-11-05,40.6805556,-122.3697222,Shasta Lake
1703,1978-01-31,43.9,-78.866667,Oshawa
1704,1999-02-26,28.669997,-81.20812,Oviedo
1705,2000-04-01,47.8211111,-122.3138889,Lynnwood
1706,2018-03-26,45.5947222,-121.1775,The Dalles
1707,1984-01-07,41.5244444,-90.5155556,Bettendorf
1708,2017-03-26,35.7452778,-81.685,Morganton
1709,1975-07-19,49.25,-122.95,Burnaby
1710,1985-06-27,34.2783333,-119.2922222,Ventura
1711,1985-09-30,34.0122222,-117.6880556,Chino
1712,1975-10-15,29.2163889,-82.0577778,unknown
1713,2019-03-04,30.3319444,-81.6558333,Jacksonville
1714,1975-06-26,35.0844444,-106.6505556,Albuquerque
1715,1973-02-02,29.6513889,-82.325,Gainesville
1716,1986-02-27,29.7630556,-95.3630556,Houston
1717,1977-11-06,33.8675,-117.9972222,Buena Park
1718,2005-06-15,32.9411111,-97.1338889,Southlake
1719,1989-11-09,29.7630556,-95.3630556,Houston
1720,2018-05-09,40.333333,-74.816389,Hopewell Township
1721,1988-07-16,43.0202778,-78.8805556,City of Tonawanda
1722,1987-11-28,40.015,-105.27,Boulder
1723,1976-03-06,28.5380556,-81.3794444,Orlando
1724,1991-04-14,54.341291,-5.748485,Downpatrick
1725,2015-02-23,39.9008333,-74.8238889,Medford Township
1726,2017-01-08,35.2144444,-90.1963889,Marion
1727,2007-10-03,42.1033333,-73.5505556,Town of Copake
1728,2015-01-10,38.9694444,-77.3863889,Herndon
1729,2001-08-23,41.6861111,-70.0763889,Harwich
1730,2007-06-06,30.2383333,-90.92,Gonzales
1731,2014-01-22,42.7758333,-114.7033333,Wendell
1732,2016-09-20,42.3708333,-72.5986111,Hatfield
1733,2008-02-20,51.514125,-0.093689,City of London
1734,2013-12-30,34.417924,-118.542512,Santa Clarita
1735,2006-08-24,45.4902778,-93.2475,Isanti
1736,1990-06-22,42.8141667,-73.94,City of Schenectady
1737,1990-03-20,35.7077778,-79.8138889,Asheboro
1738,1973-12-18,27.9472222,-82.4586111,Tampa
1739,1973-03-08,36.8527778,-75.9783333,Virginia Beach
1740,1983-11-24,35.1494444,-90.0488889,Memphis
1741,2006-09-17,41.0602778,-111.9702778,Layton
1742,1973-11-27,38.8338889,-104.8208333,Colorado Springs
1743,1998-03-05,41.6213889,-72.7461111,Berlin
1744,1997-11-03,40.0455556,-86.0086111,Noblesville
1745,2016-12-17,27.4986111,-82.575,Bradenton
1746,1987-04-25,39.1555556,-84.4597222,Norwood
1747,1974-06-13,38.3980556,-85.755,Sellersburg
1748,1986-12-17,48.0519444,-122.1758333,Marysville
1749,1976-06-01,39.7391667,-104.9841667,Denver
1750,2013-08-11,46.7833333,-92.1063889,Duluth
1751,2018-08-07,46.7313889,-117.1786111,Pullman
1752,1993-11-08,42.8441667,-71.4802778,Litchfield
1753,2016-08-14,38.2933333,-83.6588889,unknown
1754,2012-06-18,27.9472222,-82.4586111,Tampa
1755,2017-08-19,28.5380556,-81.3794444,Orlando
1756,1997-11-26,41.8452778,-71.3525,Rumford
1757,2008-12-23,41.4775,-95.2216667,Walnut
1758,1999-06-11,43.3266667,-78.3891667,Village of Lyndonville
1759,1973-07-07,33.4222222,-111.8219444,Mesa
1760,2000-10-01,37.775,-122.4183333,San Francisco
1761,2010-11-20,40.7616667,-73.3297222,Deer Park
1762,1989-09-14,36.8188889,-76.2752778,Chesapeake
1763,2007-11-22,35.1322222,-82.9341667,unknown
1764,1980-03-07,34.5361111,-117.2902778,Victorville
1765,1978-01-19,43.193852,-71.572395,Concord
1766,1984-02-25,38.8516667,-80.9366667,Normantown
1767,1976-09-10,42.9522222,-77.5905556,Town of Mendon
1768,2002-01-22,26.122439,-80.137317,Fort Lauderdale
1769,1976-11-25,41.12,-87.8611111,Kankakee
1770,1990-01-20,34.1477778,-118.1436111,Pasadena
1771,1992-05-12,52.664913,-1.034894,Charnwood
1772,1973-11-16,35.6008333,-82.5541667,Asheville
1773,1973-06-25,33.5205556,-86.8025,Birmingham
1774,2008-06-18,31.0558333,-97.4641667,Belton
1775,1982-06-20,32.7152778,-117.1563889,San Diego
1776,2012-09-04,27.8394444,-82.7913889,Seminole
1777,1974-12-24,-34.183333,22.133333,Mossel Bay Local Municipality
1778,1980-08-21,40.7391667,-89.0163889,El Paso
1779,2016-04-24,33.0963889,-79.8036111,unknown
1780,2008-02-14,40.630103,-74.427374,North Plainfield
1781,2019-01-18,39.3641667,-74.4233333,Atlantic City
1782,2015-10-10,31.7586111,-106.4863889,El Paso
1783,1997-08-10,62.1091667,-145.5463889,Glennallen
1784,2007-04-11,45.5236111,-122.675,Portland
1785,1980-06-03,38.7430556,-94.8252778,Spring Hill
1786,2003-09-26,33.2486111,-111.6336111,Queen Creek
1787,1973-02-22,33.7488889,-84.3880556,Atlanta
1788,1991-07-20,39.1072222,-76.5713889,unknown
1789,1999-12-01,41.5680556,-87.7202778,Country Club Hills
1790,2002-08-24,41.3572222,-88.4211111,Morris
1791,1990-05-27,47.0969444,-122.63,DuPont
1792,1988-03-30,45.1077778,-93.2377778,Fridley
1793,1997-06-27,34.12855,-119.125979,unknown
1794,1990-11-05,34.0522222,-118.2427778,Los Angeles
1795,1971-06-12,45.766667,-66.15,Gagetown
1796,1992-02-14,56.6,-169.541667,unknown
1797,2000-04-02,34.005,-118.8091667,Malibu
1798,2008-12-03,30.5588889,-91.5558333,Livonia
1799,2017-10-11,39.4013889,-76.6022222,Towson
1800,1977-01-03,-36.84846,174.763332,Auckland
1801,1998-02-21,39.063658,-77.298777,Darnestown
1802,2014-10-14,29.4238889,-98.4933333,San Antonio
1803,1992-04-27,39.6333333,-105.3166667,Evergreen
1804,2004-02-11,-32.387878,150.689346,Denman
1805,1993-12-08,38.2541667,-85.7594444,Louisville
1806,1995-06-03,32.6577778,-117.0291667,Chula Vista
1807,2017-07-03,41.6027778,-87.7438889,Oak Forest
1808,1975-05-05,40.0991667,-83.1141667,Dublin
1809,2011-09-16,37.3433333,-85.3419444,Campbellsville
1810,1991-07-22,40.6213889,-79.1527778,Indiana
1811,1991-02-03,29.7630556,-95.3630556,Houston
1812,1984-10-28,39.0169444,-94.2813889,Blue Springs
1813,1992-01-31,32.9125,-96.6386111,Garland
1814,1992-12-19,37.7272222,-89.2166667,Carbondale
1815,1993-09-24,39.74844,-84.283398,Trotwood
1816,2014-06-08,38.7611111,-102.7888889,Kit Carson
1817,1990-05-09,44.98,-93.2636111,Minneapolis
1818,2012-02-23,34.3738889,-80.0736111,Hartsville
1819,2019-05-16,37.7975,-121.215,Manteca
1820,1996-07-29,48.22,-122.685,"Coupeville, Washington"
1821,1995-06-28,54.184523,-2.720037,South Lakeland
1822,1986-01-15,41.9888889,-88.6866667,Sycamore
1823,2006-11-12,37.9872222,-122.5877778,Fairfax
1824,1994-10-29,34.2255556,-77.945,Wilmington
1825,1978-11-17,43.797762,-88.003208,unknown
1826,2018-03-23,35.2505556,-91.7361111,Searcy
1827,1972-09-28,41.3116667,-75.8377778,Wyoming
1828,2015-04-15,28.2438889,-82.7194444,New Port Richey
1829,1993-02-28,33.9908333,-118.4591667,Los Angeles
1830,1972-12-19,47.5930556,-122.6672222,unknown
1831,1979-08-16,45.4872222,-122.8025,Beaverton
1832,1975-01-24,32.5480556,-82.8719444,East Dublin
1833,2005-02-24,26.149798,-97.913611,Mercedes
1834,1995-07-25,32.5016667,-84.4211111,unknown
1835,2001-01-25,33.9136111,-98.4930556,Wichita Falls
1836,2016-06-24,40.3355556,-75.9272222,Reading
1837,2000-12-19,38.6272222,-90.1977778,Saint Louis
1838,2008-02-26,-33.093373,151.588982,unknown
1839,1999-02-26,42.2711111,-89.0938889,Rockford
1840,2006-05-27,39.8680556,-104.9713889,Thornton
1841,2007-10-27,33.4222222,-111.8219444,Mesa
1842,2015-12-19,48.9202778,-122.3413889,Everson
1843,2014-09-20,32.7252778,-97.3205556,Fort Worth
1844,1977-07-07,40.8255556,-73.6986111,Port Washington
1845,2008-03-11,38.2544444,-104.6086111,Pueblo
1846,1987-09-20,38.8402778,-97.6111111,Salina
1847,1990-09-23,53.283333,-2.9,Ellesmere Port
1848,1971-06-08,36.175,-115.1363889,Las Vegas
1849,2015-06-23,40.935998,-73.901708,City of Yonkers
1850,1970-10-08,43.8013889,-91.2394444,La Crosse
1851,1976-05-06,54.2,-3.266667,Copeland
1852,1982-05-23,-36.2,146.966667,Baranduda
1853,1985-11-30,51.833333,0.583333,Braintree
1854,1989-05-04,46.282186,-83.526456,Huron Shores
1855,1987-01-29,38.863138,-104.845462,Colorado Springs
1856,1992-06-28,42.2711111,-89.0938889,Rockford
1857,2007-10-19,37.892726,-122.187038,Orinda
1858,1982-03-03,42.1872222,-93.5955556,Story City
1859,2015-08-07,37.6455556,-91.5358333,Salem
1860,1977-11-06,45.371271,-116.638199,unknown
1861,2009-05-05,36.2686111,-76.5361111,unknown
1862,2004-05-22,14.083333,-87.216667,Tegucigalpa
1863,2001-08-02,32.4486111,-99.7327778,Abilene
1864,2004-06-01,37.0113889,-80.0497222,unknown
1865,1984-10-23,37.6688889,-122.0797222,Hayward
1866,1981-12-21,31.7952778,-94.1788889,Center
1867,2006-02-28,41.6916667,-97.4841667,Humphrey
1868,1997-03-05,36.9902778,-86.4436111,Bowling Green
1869,1971-09-15,34.0522222,-118.2427778,Los Angeles
1870,1988-04-13,37.7241667,-89.8611111,Perryville
1871,2019-03-20,49.25,-123.133333,Vancouver
1872,1982-12-31,45.0380556,-93.3863889,New Hope
1873,2015-04-23,33.5538889,-117.2130556,Murrieta
1874,1980-02-08,32.7763889,-79.9311111,Charleston
1875,2002-09-05,37.1183333,-82.8269444,Whitesburg
1876,1992-03-27,41.0041667,-92.3736111,unknown
1877,1995-04-08,37.6922222,-97.3372222,Wichita
1878,1994-02-26,39.7683333,-86.1580556,Indianapolis
1879,1999-09-11,33.7455556,-117.8669444,Santa Ana
1880,2019-04-07,37.6447222,-115.7427778,unknown
1881,1978-05-24,9.916667,-68.3,Tinaquillo
1882,1996-02-02,28.555,-82.3880556,Brooksville
1883,1982-05-16,36.778261,-119.417932,unknown
1884,2001-04-24,32.8341667,-97.2286111,North Richland Hills
1885,1974-02-05,32.9344444,-97.2513889,Keller
1886,1983-06-21,26.1719444,-80.1322222,unknown
1887,1983-11-06,41.7791667,-83.5688889,Temperance
1888,2017-09-28,49.883333,-97.166667,Winnipeg
1889,1982-04-10,49.25,-123.133333,Vancouver
1890,2014-01-20,37.6922222,-97.3372222,Wichita
1891,2001-01-27,43.6980556,-85.4836111,Big Rapids
1892,1999-09-05,53.070884,-2.736506,Bickerton
1893,1996-12-20,29.9911111,-93.9583333,Port Neches
1894,2007-05-07,32.8544444,-79.975,North Charleston
1895,1982-05-23,38.7955556,-77.6141667,Gainesville
1896,1989-04-12,42.7852778,-88.405,East Troy
1897,1977-10-26,39.1502778,-123.2066667,Ukiah
1898,1979-11-02,40.7297222,-73.2108333,Islip
1899,2010-12-27,47.3225,-122.3113889,Federal Way
1900,1998-06-13,40.6213889,-79.1527778,Indiana
1901,2016-05-28,27.3361111,-82.5308333,Sarasota
1902,1976-06-14,27.8002778,-97.3961111,Corpus Christi
1903,2014-11-21,23.838805,78.737807,Sagar
1904,1991-11-22,49.9,-119.483333,Kelowna
1905,2005-07-11,40.31,-75.1302778,Doylestown
1906,2000-11-05,31.6938889,-89.1305556,Laurel
1907,2018-08-10,21.451331,-158.015281,Mililani Town
1908,1993-10-24,33.8302778,-116.5444444,Palm Springs
1909,1988-06-07,38.6858333,-121.0811111,unknown
1910,2014-07-19,35.0844444,-106.6505556,Albuquerque
1911,1977-06-15,30.2669444,-97.7427778,Austin
1912,2015-12-25,33.7211111,-85.1455556,Bremen
1913,2008-07-15,40.9311111,-73.8991667,City of Yonkers
1914,2012-06-17,36.175,-115.1363889,Las Vegas
1915,2010-03-16,40.7325,-73.4458333,Village of Farmingdale
1916,1971-09-14,41.8297222,-86.2541667,Niles
1917,2008-05-26,46.5927778,-112.0352778,Helena
1918,2012-09-10,28.1611111,-81.6019444,Davenport
1919,1998-02-13,43.3541667,-96.8916667,Lennox
1920,1998-03-15,55.288131,23.957728,Kėdainiai
1921,1992-03-09,26.0966667,-80.1275,Fort Lauderdale
1922,1999-11-14,43.003675,-73.195509,Shaftsbury
1923,1993-09-19,38.005,-121.8047222,Antioch
1924,1979-08-25,42.209774,-79.466844,Chautauqua
1925,2011-07-15,-0.589724,101.343106,Sumpu
1926,1972-03-09,44.6111111,-69.335,Unity
1927,2008-11-28,50.866667,-2.166667,Blandford Forum
1928,1970-08-14,33.4483333,-112.0733333,Phoenix
1929,2010-03-08,27.0438889,-82.2361111,North Port
1930,1990-05-22,25.9327778,-80.1627778,unknown
1931,2006-07-24,43.6136111,-116.2025,Boise
1932,1981-09-17,36.0533333,-87.3125,Burns
1933,2001-05-20,43.666667,-79.416667,Old Toronto
1934,1988-01-27,52.516667,-3.3,Newtown
1935,2008-07-20,25.9327778,-80.1627778,unknown
1936,1983-07-20,9.977844,-84.829421,Puntarenas
1937,2001-12-25,41.0647222,-86.2158333,Rochester
1938,1973-08-25,51.633333,-3.966667,Swansea
1939,2006-04-09,38.935,-74.9063889,Cape May
1940,1987-11-24,34.3983333,-82.2469444,Ware Shoals
1941,1994-03-10,40.7141667,-74.0063889,City of New York
1942,1994-07-12,31.5544444,-110.3030556,Sierra Vista
1943,1987-07-20,49.25,-123.133333,Vancouver
1944,1986-02-10,35.9938889,-78.8988889,Durham
1945,1971-06-09,42.70891,1.864656,Orgeix
1946,1998-11-04,25.7738889,-80.1938889,Miami
1947,2006-09-12,40.8680556,-73.4261111,Huntington
1948,1973-11-05,41.7561111,-124.2005556,Crescent City
1949,2001-03-19,43.7730556,-88.4469444,Fond du Lac
1950,1987-06-05,52.416667,-1.55,Coventry
1951,2003-05-04,31.1911111,-95.2352778,unknown
1952,1998-08-09,34.5861111,-94.2394444,Mena
1953,1973-04-17,38.5472222,-122.8152778,Windsor
1954,1975-07-09,35.2269444,-80.8433333,Charlotte
1955,2016-01-06,26.9758333,-82.0908333,Port Charlotte
1956,2010-12-19,33.5016667,-117.6616667,San Juan Capistrano
1957,1990-04-11,25.551603,-80.632692,unknown
1958,1998-03-02,39.6005556,-77.8208333,Williamsport
1959,1994-03-29,42.0597222,-93.88,Boone
1960,1982-09-11,34.8761111,-83.9583333,Blairsville
1961,2006-04-28,35.7452778,-81.685,Morganton
1962,2009-06-17,43.0730556,-89.4011111,Madison
1963,2012-12-10,40.4077778,-74.9786111,Stockton
1964,2016-05-09,52.906367,-1.257422,City of Nottingham
1965,1992-06-10,38.738308,-93.573028,unknown
1966,1993-06-24,-33.480942,145.534348,Hillston
1967,1976-01-24,34.5369444,-86.3944444,New Hope
1968,2012-01-02,41.865,-80.79,Ashtabula
1969,1970-10-30,32.6208333,-83.6,unknown
1970,1977-02-21,51.514125,-0.093689,City of London
1971,1983-03-13,39.57394,-75.946324,unknown
1972,1978-06-03,35.3805556,-106.4786111,unknown
1973,2007-03-26,42.7852778,-88.405,East Troy
1974,2000-06-30,42.3805556,-76.8736111,Watkins Glen
1975,1999-12-08,40.6130556,-80.5630556,Chester
1976,1993-01-15,35.7719444,-78.6388889,Raleigh
1977,1985-04-22,37.5958333,-122.0180556,Union City
1978,2015-03-26,35.20105,-91.831833,unknown
1979,2006-09-09,33.4222222,-111.8219444,Mesa
1980,1998-12-12,40.738266,-74.538977,Harding Township
1981,2010-06-29,30.2669444,-97.7427778,Austin
1982,1979-03-13,37.972571,-121.147986,unknown
1983,1985-10-29,42.5277778,-92.4452778,Cedar Falls
1984,1994-01-19,38.6861111,-76.535,Chesapeake Beach
1985,1989-04-27,33.1580556,-117.3497222,Carlsbad
1986,1981-05-16,32.2216667,-110.9258333,Tucson
1987,1991-08-14,34.0286111,-117.8094444,Diamond Bar
1988,2002-03-05,43.033333,-80.883333,Ingersoll
1989,2002-08-17,29.7630556,-95.3630556,Houston
1990,1986-09-12,35.5955556,-78.7316667,unknown
1991,1971-04-10,38.1905556,-116.3691667,unknown
1992,2000-06-29,41.1577778,-80.0888889,Grove City
1993,1982-09-23,27.4986111,-82.575,Bradenton
1994,1974-07-11,31.8455556,-102.3672222,Odessa
1995,2005-02-25,47.3294444,-122.5788889,Gig Harbor
1996,1996-06-15,30.5080556,-97.6786111,Round Rock
1997,1986-04-12,53.25,-2.116667,Macclesfield
1998,1998-03-11,36.9902778,-86.4436111,Bowling Green
1999,2002-12-14,39.1155556,-77.5638889,Leesburg
2000,2018-03-02,41.85,-87.65,Chicago
2001,1994-12-29,40.4483333,-122.2966667,Anderson
2002,1982-02-19,34.7302778,-86.5861111,Huntsville
2003,2000-10-09,32.2730556,-89.9858333,Brandon
2004,1973-02-13,43.8280556,-91.3038889,La Crescent
2005,1997-11-03,33.8702778,-117.9244444,Fullerton
2006,1993-12-18,39.7558333,-77.5780556,Waynesboro
2007,2018-03-09,28.5380556,-81.3794444,Orlando
2008,1987-05-15,40.516977,-80.221348,Moon Township
2009,1976-04-14,27.7,85.333333,काठमाडौं
2010,2015-12-20,47.6063889,-122.3308333,Seattle
2011,1974-12-07,40.3930556,-90.1547222,Lewistown
2012,2011-07-17,38.2544444,-104.6086111,Pueblo
2013,1988-02-25,42.7325,-84.5555556,Lansing
2014,2006-11-03,47.5708333,-122.2208333,Mercer Island
2015,2001-06-18,41.2427778,-73.2011111,Trumbull
2016,1984-02-20,40.706661,-76.421599,Barry Township
2017,2016-12-20,39.1619444,-84.4569444,Norwood
2018,2005-06-10,40.7555556,-73.5880556,Village of Westbury
2019,2003-02-28,47.6063889,-122.3308333,Seattle
2020,1984-01-28,38.6780556,-121.175,Folsom
2021,1988-11-07,30.2669444,-97.7427778,Austin
2022,1974-01-15,44.0522222,-123.0855556,Eugene
2023,1998-02-27,28.8355556,-82.3305556,Inverness
2024,2004-02-01,33.9172222,-118.0111111,La Mirada
2025,1985-01-31,28.8355556,-82.3305556,Inverness
2026,1973-01-23,43.666667,-79.416667,Old Toronto
2027,1990-08-07,36.7280556,-76.5838889,Suffolk
2028,1994-12-25,37.939968,-104.819887,Colorado City
2029,2014-08-31,53.55,-113.5,Edmonton
2030,2016-07-03,-33.861481,151.205475,Sydney
2031,2015-12-04,33.4222222,-111.8219444,Mesa
2032,1983-02-06,39.5347222,-107.7825,Rifle
2033,2006-11-10,33.7475,-116.9711111,Hemet
2034,1989-07-13,39.9536111,-74.1983333,Toms River
2035,1999-09-01,44.9430556,-123.0338889,Salem
2036,1970-09-10,40.1794444,-74.8555556,Falls Township
2037,1974-09-09,46.8675,-122.2652778,Eatonville
2038,1981-09-06,32.7286111,-94.9422222,Gilmer
2039,1975-01-28,39.0169444,-94.2813889,Blue Springs
2040,1973-11-22,27.3361111,-82.5308333,Sarasota
2041,1996-03-12,39.3736111,-76.9680556,Sykesville
2042,1983-07-14,35.1952778,-79.4697222,Pinehurst
2043,1973-05-07,43.866667,-79.266667,Markham
2044,2016-10-22,37.3230556,-122.0311111,Cupertino
2045,2007-11-27,30.5041667,-90.4611111,Hammond
2046,2017-08-20,43.666667,-79.416667,Old Toronto
2047,1986-01-11,38.7838889,-90.4811111,Saint Charles
2048,1998-04-23,38.2541667,-85.7594444,Louisville
2049,2001-09-30,37.3402778,-95.2608333,Parsons
2050,1999-07-08,26.7052778,-80.0366667,Palm Beach
2051,2018-10-10,38.8822222,-77.1713889,Falls Church
2052,1977-08-06,39.8677778,-75.1319444,Westville
2053,1972-01-08,31.3111111,-92.445,Alexandria
2054,1971-01-12,36.7069444,-97.0852778,Ponca City
2055,1984-06-08,45.2291667,-94.0016667,Maple Lake
2056,2009-09-10,27.9375,-82.2861111,Brandon
2057,1993-11-13,35.2463889,-92.9363889,Atkins
2058,2013-07-26,42.6011111,-76.1808333,City of Cortland
2059,2001-08-02,35.6333333,-80.1161111,Denton
2060,1997-04-22,36.175,-115.1363889,Las Vegas
2061,2017-08-18,36.7477778,-119.7713889,Fresno
2062,1988-08-14,28.198096,-82.432994,Land O' Lakes
2063,2010-05-04,38.7891667,-77.1875,Springfield
2064,1989-03-23,31.4636111,-100.4366667,San Angelo
2065,2009-06-15,32.8572222,-116.9213889,Lakeside
2066,2005-07-21,40.2413889,-75.2841667,Lansdale
2067,1977-09-20,27.9472222,-82.4586111,Tampa
2068,1990-08-18,41.7886111,-89.6961111,Sterling
2069,2008-03-26,42.7283333,-73.6922222,City of Troy
2070,1976-11-03,40.9044444,-80.0466667,Prospect
2071,2008-08-10,41.35,-72.0788889,Groton
2072,1979-07-06,45.5608333,-94.1622222,St. Cloud
2073,2000-07-26,33.9480556,-86.4727778,Oneonta
2074,1989-10-15,52.133333,-106.666667,Saskatoon
2075,2018-11-22,42.2575,-83.2111111,Allen Park
2076,1972-03-12,44.7691667,-94.1513889,Glencoe
2077,2011-06-21,28.1486111,-80.5886111,Indian Harbour Beach
2078,2015-12-31,41.1669444,-73.2052778,Bridgeport
2079,1979-07-20,30.2394444,-81.3858333,Ponte Vedra Beach
2080,2010-09-30,41.2083333,-73.8916667,Village of Croton-on-Hudson
2081,1982-06-18,33.0461111,-96.9938889,Lewisville
2082,1988-08-01,47.6480556,-121.9127778,Carnation
2083,1972-05-31,32.5091667,-92.1191667,Monroe
2084,2009-07-23,32.7152778,-117.1563889,San Diego
2085,1986-10-11,29.8830556,-97.9411111,San Marcos
2086,2006-03-22,42.8858333,-87.8630556,Oak Creek
2087,1981-09-10,40.2141667,-77.0088889,Mechanicsburg
2088,2000-08-14,28.4055556,-80.605,unknown
2089,2016-10-11,35.1980556,-111.6505556,Flagstaff
2090,1986-08-15,39.1619444,-84.4569444,Norwood
2091,2008-08-23,41.77,-72.3055556,Coventry
2092,1982-08-22,42.3811111,-71.6375,Berlin
2093,1970-04-09,35.1980556,-111.6505556,Flagstaff
